[
  {
    "id": 1,
    "name": "Agung",
    "elevation": 3031,
    "province": "Bali",
    "island": "Bali",
    "long": 115.503622,
    "lat": -8.340686
  },
  {
    "id": 2,
    "name": "Batukaru",
    "elevation": 2276,
    "province": "Bali",
    "island": "Bali",
    "long": 115.08844,
    "lat": -8.33485
  },
  {
    "id": 3,
    "name": "Batur",
    "elevation": 1717,
    "province": "Bali",
    "island": "Bali",
    "long": 115.37691,
    "lat": -8.23715
  },
  {
    "id": 4,
    "name": "Maras (Bui)",
    "elevation": 705,
    "province": "Bangka Belitung",
    "island": "Bangka",
    "long": 105.849178,
    "lat": -1.864228
  },
  {
    "id": 5,
    "name": "Tajam",
    "elevation": 510,
    "province": "Bangka Belitung",
    "island": "Belitung",
    "long": 107.873251,
    "lat": -2.785943
  },
  {
    "id": 6,
    "name": "Halimun (North)",
    "elevation": 1929,
    "province": "Banten",
    "island": "Java",
    "long": 106.4516538,
    "lat": -6.710830466
  },
  {
    "id": 7,
    "name": "Karang",
    "elevation": 1778,
    "province": "Banten",
    "island": "Java",
    "long": 106.04911,
    "lat": -6.26861
  },
  {
    "id": 8,
    "name": "Pulosari",
    "elevation": 1346,
    "province": "Banten",
    "island": "Java",
    "long": 105.9783492,
    "lat": -6.341661175
  },
  {
    "id": 9,
    "name": "Raksa",
    "elevation": 329,
    "province": "Banten",
    "island": "Panaitan",
    "long": 105.24261908,
    "lat": -6.60267826
  },
  {
    "id": 10,
    "name": "Daun",
    "elevation": 2493,
    "province": "Bengkulu",
    "island": "Sumatera",
    "long": 102.3425,
    "lat": -3.391989
  },
  {
    "id": 11,
    "name": "Gedang",
    "elevation": 2448,
    "province": "Bengkulu",
    "island": "Sumatera",
    "long": 101.9195215,
    "lat": -2.736184224
  },
  {
    "id": 12,
    "name": "Kaba",
    "elevation": 1952,
    "province": "Bengkulu",
    "island": "Sumatra",
    "long": 102.616,
    "lat": -3.523
  },
  {
    "id": 13,
    "name": "Boliohutu (Huido Ileile)",
    "elevation": 2072,
    "province": "Gorontalo",
    "island": "Sulawesi",
    "long": 122.5068553,
    "lat": 0.886375947
  },
  {
    "id": 14,
    "name": "Dapi",
    "elevation": 1694,
    "province": "Gorontalo",
    "island": "Sulawesi",
    "long": 122.0323887,
    "lat": 0.700035956
  },
  {
    "id": 15,
    "name": "Tentolomatinan",
    "elevation": 2227,
    "province": "Gorontalo",
    "island": "Sulawesi",
    "long": 121.77651,
    "lat": 0.938797286
  },
  {
    "id": 16,
    "name": "Kerinci",
    "elevation": 3805,
    "province": "Jambi",
    "island": "Sumatera",
    "long": 101.2642252,
    "lat": -1.696621991
  },
  {
    "id": 17,
    "name": "Masurai",
    "elevation": 2933,
    "province": "Jambi",
    "island": "Sumatera",
    "long": 101.85778,
    "lat": -2.5025
  },
  {
    "id": 18,
    "name": "Raya",
    "elevation": 2543,
    "province": "Jambi",
    "island": "Sumatera",
    "long": 101.429974,
    "lat": -2.22826
  },
  {
    "id": 19,
    "name": "Sumbing Sumatera",
    "elevation": 2507,
    "province": "Jambi",
    "island": "Sumatera",
    "long": 101.7291962,
    "lat": -2.414933689
  },
  {
    "id": 20,
    "name": "Tujuh",
    "elevation": 2732,
    "province": "Jambi",
    "island": "Sumatera",
    "long": 101.440263,
    "lat": -1.701395
  },
  {
    "id": 21,
    "name": "Bongkok",
    "elevation": 985,
    "province": "Jawa Barat",
    "island": "Java",
    "long": 107.33736,
    "lat": -6.601639
  },
  {
    "id": 22,
    "name": "Bukittunggul",
    "elevation": 2215,
    "province": "Jawa Barat",
    "island": "Java",
    "long": 107.72638,
    "lat": -6.8111
  },
  {
    "id": 23,
    "name": "Burangrang",
    "elevation": 2064,
    "province": "Jawa Barat",
    "island": "Java",
    "long": 107.55566,
    "lat": -6.774184
  },
  {
    "id": 24,
    "name": "Cikuray",
    "elevation": 2821,
    "province": "Jawa Barat",
    "island": "Java",
    "long": 107.8599492,
    "lat": -7.322577301
  },
  {
    "id": 25,
    "name": "Ciremai",
    "elevation": 3078,
    "province": "Jawa Barat",
    "island": "Java",
    "long": 108.406922,
    "lat": -6.892947216
  },
  {
    "id": 26,
    "name": "Galunggung (Beuticanar)",
    "elevation": 2240,
    "province": "Jawa Barat",
    "island": "Java",
    "long": 108.069087,
    "lat": -7.234457
  },
  {
    "id": 27,
    "name": "Guntur (Masigit)",
    "elevation": 2249,
    "province": "Jawa Barat",
    "island": "Java",
    "long": 107.8412575,
    "lat": -7.14263954
  },
  {
    "id": 28,
    "name": "Kerenceng",
    "elevation": 1742,
    "province": "Jawa Barat",
    "island": "Java",
    "long": 107.88188,
    "lat": -6.93407
  },
  {
    "id": 29,
    "name": "Malabar (Puncak Besar)",
    "elevation": 2343,
    "province": "Jawa Barat",
    "island": "Java",
    "long": 107.62513222,
    "lat": -7.1514397
  },
  {
    "id": 30,
    "name": "Manglayang",
    "elevation": 1835,
    "province": "Jawa Barat",
    "island": "Java",
    "long": 107.74393,
    "lat": -6.87793
  },
  {
    "id": 31,
    "name": "Pangrango",
    "elevation": 3020,
    "province": "Jawa Barat",
    "island": "Java",
    "long": 106.9649795,
    "lat": -6.77006361
  },
  {
    "id": 32,
    "name": "Papandayan (Malang)",
    "elevation": 2675,
    "province": "Jawa Barat",
    "island": "Java",
    "long": 107.71585,
    "lat": -7.32893
  },
  {
    "id": 33,
    "name": "Parang",
    "elevation": 930,
    "province": "Jawa Barat",
    "island": "Java",
    "long": 107.34564,
    "lat": -6.59483
  },
  {
    "id": 34,
    "name": "Patuha",
    "elevation": 2450,
    "province": "Jawa Barat",
    "island": "Java",
    "long": 107.3992,
    "lat": -7.16238
  },
  {
    "id": 35,
    "name": "Rakutak",
    "elevation": 1959,
    "province": "Jawa Barat",
    "island": "Java",
    "long": 107.734462,
    "lat": -7.147885
  },
  {
    "id": 36,
    "name": "Salak",
    "elevation": 2211,
    "province": "Jawa Barat",
    "island": "Java",
    "long": 106.733567,
    "lat": -6.716062
  },
  {
    "id": 37,
    "name": "Sangga Buana",
    "elevation": 1300,
    "province": "Jawa Barat",
    "island": "Java",
    "long": 107.2206,
    "lat": -6.59077
  },
  {
    "id": 38,
    "name": "Sawal",
    "elevation": 1764,
    "province": "Jawa Barat",
    "island": "Java",
    "long": 108.2716727,
    "lat": -7.189202179
  },
  {
    "id": 39,
    "name": "Tampomas",
    "elevation": 1684,
    "province": "Jawa Barat",
    "island": "Java",
    "long": 107.960584,
    "lat": -6.763727
  },
  {
    "id": 40,
    "name": "Tangkuban Parahu",
    "elevation": 2086,
    "province": "Jawa Barat",
    "island": "Java",
    "long": 107.6059011,
    "lat": -6.753212272
  },
  {
    "id": 41,
    "name": "Wayang-Windu",
    "elevation": 2198,
    "province": "Jawa Barat",
    "island": "Java",
    "long": 107.64004,
    "lat": -7.21083
  },
  {
    "id": 42,
    "name": "Dieng (Prau)",
    "elevation": 2600,
    "province": "Jawa Tengah",
    "island": "Java",
    "long": 109.93217,
    "lat": -7.19716
  },
  {
    "id": 43,
    "name": "Merapi",
    "elevation": 2930,
    "province": "Jawa Tengah",
    "island": "Java",
    "long": 110.446937,
    "lat": -7.539728
  },
  {
    "id": 44,
    "name": "Merbabu",
    "elevation": 3145,
    "province": "Jawa Tengah",
    "island": "Java",
    "long": 110.43968,
    "lat": -7.45422
  },
  {
    "id": 45,
    "name": "Muria",
    "elevation": 1610,
    "province": "Jawa Tengah",
    "island": "Java",
    "long": 110.890289,
    "lat": -6.616241
  },
  {
    "id": 46,
    "name": "Sindoro",
    "elevation": 3150,
    "province": "Jawa Tengah",
    "island": "Java",
    "long": 109.99724,
    "lat": -7.30052
  },
  {
    "id": 47,
    "name": "Slamet",
    "elevation": 3436,
    "province": "Jawa Tengah",
    "island": "Java",
    "long": 109.2199358,
    "lat": -7.239069188
  },
  {
    "id": 48,
    "name": "Sumbing",
    "elevation": 3371,
    "province": "Jawa Tengah",
    "island": "Java",
    "long": 110.07121,
    "lat": -7.38343
  },
  {
    "id": 49,
    "name": "Telomoyo",
    "elevation": 1894,
    "province": "Jawa Tengah",
    "island": "Java",
    "long": 110.39989,
    "lat": -7.361
  },
  {
    "id": 50,
    "name": "Andong",
    "elevation": 1726,
    "province": "Jawa Tengah",
    "island": "Java",
    "long": 110.3702778,
    "lat": -7.39
  },
  {
    "id": 51,
    "name": "Ungaran",
    "elevation": 2050,
    "province": "Jawa Tengah",
    "island": "Java",
    "long": 110.3445,
    "lat": -7.18724
  },
  {
    "id": 52,
    "name": "Pulau Bawean (Gunung Besar)",
    "elevation": 655,
    "province": "Jawa Timur",
    "island": "Bawean",
    "long": 112.652905,
    "lat": -5.78967
  },
  {
    "id": 53,
    "name": "Anjasmoro",
    "elevation": 2372,
    "province": "Jawa Timur",
    "island": "Java",
    "long": 112.47899,
    "lat": -7.76757
  },
  {
    "id": 54,
    "name": "Argopuro",
    "elevation": 3088,
    "province": "Jawa Timur",
    "island": "Java",
    "long": 113.566405,
    "lat": -7.964364
  },
  {
    "id": 55,
    "name": "Arjuno",
    "elevation": 3339,
    "province": "Jawa Timur",
    "island": "Java",
    "long": 112.5900101,
    "lat": -7.764129679
  },
  {
    "id": 56,
    "name": "Baluran",
    "elevation": 1265,
    "province": "Jawa Timur",
    "island": "Java",
    "long": 114.3629307,
    "lat": -7.845617749
  },
  {
    "id": 57,
    "name": "Bromo (Pananjakan)",
    "elevation": 2782,
    "province": "Jawa Timur",
    "island": "Java",
    "long": 112.9521129,
    "lat": -7.903737765
  },
  {
    "id": 58,
    "name": "Butak",
    "elevation": 2868,
    "province": "Jawa Timur",
    "island": "Java",
    "long": 112.46513,
    "lat": -7.95525
  },
  {
    "id": 59,
    "name": "Ijen (Merapi)",
    "elevation": 2803,
    "province": "Jawa Timur",
    "island": "Java",
    "long": 114.261977,
    "lat": -8.062683
  },
  {
    "id": 60,
    "name": "Kelud",
    "elevation": 1724,
    "province": "Jawa Timur",
    "island": "Java",
    "long": 112.313927,
    "lat": -7.93477
  },
  {
    "id": 61,
    "name": "Lamongan (Tarub)",
    "elevation": 1667,
    "province": "Jawa Timur",
    "island": "Java",
    "long": 113.3463,
    "lat": -7.97542
  },
  {
    "id": 62,
    "name": "Lawu",
    "elevation": 3265,
    "province": "Jawa Timur",
    "island": "Java",
    "long": 111.194638,
    "lat": -7.627264
  },
  {
    "id": 63,
    "name": "Liman",
    "elevation": 2563,
    "province": "Jawa Timur",
    "island": "Java",
    "long": 111.75685,
    "lat": -7.8204
  },
  {
    "id": 64,
    "name": "Penanggungan",
    "elevation": 1653,
    "province": "Jawa Timur",
    "island": "Java",
    "long": 112.61996,
    "lat": -7.61561
  },
  {
    "id": 65,
    "name": "Raung",
    "elevation": 3332,
    "province": "Jawa Timur",
    "island": "Java",
    "long": 114.04666,
    "lat": -8.12558
  },
  {
    "id": 66,
    "name": "Ringgit",
    "elevation": 1249,
    "province": "Jawa Timur",
    "island": "Java",
    "long": 113.84654,
    "lat": -7.724063
  },
  {
    "id": 67,
    "name": "Semeru",
    "elevation": 3676,
    "province": "Jawa Timur",
    "island": "Java",
    "long": 112.92268,
    "lat": -8.107889
  },
  {
    "id": 68,
    "name": "Batu Daya",
    "elevation": 958,
    "province": "Kalimantan Barat",
    "island": "Borneo",
    "long": 110.335733,
    "lat": -1.0165
  },
  {
    "id": 69,
    "name": "Batuensambang",
    "elevation": 1770,
    "province": "Kalimantan Barat",
    "island": "Borneo",
    "long": 113.1088366,
    "lat": 0.138649846
  },
  {
    "id": 70,
    "name": "Batutenobong",
    "elevation": 1580,
    "province": "Kalimantan Barat",
    "island": "Borneo",
    "long": 113.2027625,
    "lat": 0.449870007
  },
  {
    "id": 71,
    "name": "Bawang",
    "elevation": 1428,
    "province": "Kalimantan Barat",
    "island": "Borneo",
    "long": 109.3854802,
    "lat": 0.911093663
  },
  {
    "id": 72,
    "name": "Berangin",
    "elevation": 1644,
    "province": "Kalimantan Barat",
    "island": "Borneo",
    "long": 111.0675,
    "lat": -0.4967
  },
  {
    "id": 73,
    "name": "Berumput (Kanyi)",
    "elevation": 1570,
    "province": "Kalimantan Barat",
    "island": "Borneo",
    "long": 109.6686,
    "lat": 1.72075
  },
  {
    "id": 74,
    "name": "Beturan",
    "elevation": 1577,
    "province": "Kalimantan Barat",
    "island": "Borneo",
    "long": 112.442104,
    "lat": -0.057852221
  },
  {
    "id": 75,
    "name": "Biwa",
    "elevation": 1321,
    "province": "Kalimantan Barat",
    "island": "Borneo",
    "long": 110.8233,
    "lat": -0.6
  },
  {
    "id": 76,
    "name": "Bukit Raya",
    "elevation": 1200,
    "province": "Kalimantan Barat",
    "island": "Borneo",
    "long": 111.0817,
    "lat": -1.5333
  },
  {
    "id": 77,
    "name": "Kehuma",
    "elevation": 1210,
    "province": "Kalimantan Barat",
    "island": "Borneo",
    "long": 111.3383,
    "lat": 0.935
  },
  {
    "id": 78,
    "name": "Kelam",
    "elevation": 940,
    "province": "Kalimantan Barat",
    "island": "Borneo",
    "long": 111.652602,
    "lat": 0.075578
  },
  {
    "id": 79,
    "name": "Kenepai",
    "elevation": 1159,
    "province": "Kalimantan Barat",
    "island": "Borneo",
    "long": 111.7175,
    "lat": 0.71
  },
  {
    "id": 80,
    "name": "Kerihun",
    "elevation": 2005,
    "province": "Kalimantan Barat",
    "island": "Borneo",
    "long": 113.8895475,
    "lat": 1.03539597
  },
  {
    "id": 81,
    "name": "Kujau",
    "elevation": 1308,
    "province": "Kalimantan Barat",
    "island": "Borneo",
    "long": 111.2667,
    "lat": -0.2258
  },
  {
    "id": 82,
    "name": "Lawit",
    "elevation": 1767,
    "province": "Kalimantan Barat",
    "island": "Borneo",
    "long": 112.9557952,
    "lat": 1.34203923
  },
  {
    "id": 83,
    "name": "Melatai",
    "elevation": 1923,
    "province": "Kalimantan Barat",
    "island": "Borneo",
    "long": 113.5679745,
    "lat": 1.310469307
  },
  {
    "id": 84,
    "name": "Merdai",
    "elevation": 1421,
    "province": "Kalimantan Barat",
    "island": "Borneo",
    "long": 110.250554,
    "lat": 0.877556
  },
  {
    "id": 85,
    "name": "Niut",
    "elevation": 1660,
    "province": "Kalimantan Barat",
    "island": "Borneo",
    "long": 109.933316,
    "lat": 1.002538
  },
  {
    "id": 86,
    "name": "Palung (Ponti)",
    "elevation": 1151,
    "province": "Kalimantan Barat",
    "island": "Borneo",
    "long": 110.14478973,
    "lat": -1.23344399
  },
  {
    "id": 87,
    "name": "Penrissen",
    "elevation": 1326,
    "province": "Kalimantan Barat",
    "island": "Borneo",
    "long": 110.222835,
    "lat": 1.114455
  },
  {
    "id": 88,
    "name": "Rangga",
    "elevation": 1506,
    "province": "Kalimantan Barat",
    "island": "Borneo",
    "long": 111.2370833,
    "lat": -0.686179148
  },
  {
    "id": 89,
    "name": "Saran",
    "elevation": 1741,
    "province": "Kalimantan Barat",
    "island": "Borneo",
    "long": 111.29584,
    "lat": -0.42415
  },
  {
    "id": 90,
    "name": "Sebayan",
    "elevation": 1377,
    "province": "Kalimantan Barat",
    "island": "Borneo",
    "long": 110.9887567,
    "lat": -1.106258423
  },
  {
    "id": 91,
    "name": "Tutoop",
    "elevation": 1220,
    "province": "Kalimantan Barat",
    "island": "Borneo",
    "long": 111.6283,
    "lat": 0.9133
  },
  {
    "id": 92,
    "name": "Cabang",
    "elevation": 1030,
    "province": "Kalimantan Barat",
    "island": "Karimata",
    "long": 108.9037595,
    "lat": -1.603402629
  },
  {
    "id": 93,
    "name": "Besar (Halau Halau)",
    "elevation": 1901,
    "province": "Kalimantan Selatan",
    "island": "Borneo",
    "long": 115.625986,
    "lat": -2.710545
  },
  {
    "id": 94,
    "name": "Kahung",
    "elevation": 1285,
    "province": "Kalimantan Selatan",
    "island": "Borneo",
    "long": 115.03069,
    "lat": -3.69035
  },
  {
    "id": 95,
    "name": "Sebatung",
    "elevation": 725,
    "province": "Kalimantan Selatan",
    "island": "Laut",
    "long": 116.211341,
    "lat": -3.350827
  },
  {
    "id": 96,
    "name": "Batikap",
    "elevation": 1580,
    "province": "Kalimantan Tengah",
    "island": "Borneo",
    "long": 113.428445,
    "lat": 0.260823
  },
  {
    "id": 97,
    "name": "Bukit Raya",
    "elevation": 2300,
    "province": "Kalimantan Tengah",
    "island": "Borneo",
    "long": 112.68889,
    "lat": -0.65985
  },
  {
    "id": 98,
    "name": "Kanamu",
    "elevation": 1578,
    "province": "Kalimantan Tengah",
    "island": "Borneo",
    "long": 113.146867,
    "lat": -0.730706
  },
  {
    "id": 99,
    "name": "Liyang",
    "elevation": 1720,
    "province": "Kalimantan Tengah",
    "island": "Borneo",
    "long": 113.700241,
    "lat": 0.366635
  },
  {
    "id": 100,
    "name": "Pemancung",
    "elevation": 1552,
    "province": "Kalimantan Tengah",
    "island": "Borneo",
    "long": 112.1754521,
    "lat": -0.725404508
  },
  {
    "id": 101,
    "name": "Puruk Sandukui",
    "elevation": 1023,
    "province": "Kalimantan Tengah",
    "island": "Borneo",
    "long": 113.623388,
    "lat": -0.490257
  },
  {
    "id": 102,
    "name": "Sapathawung West",
    "elevation": 1906,
    "province": "Kalimantan Tengah",
    "island": "Borneo",
    "long": 114.1304252,
    "lat": 0.445388164
  },
  {
    "id": 103,
    "name": "Ular",
    "elevation": 1208,
    "province": "Kalimantan Tengah",
    "island": "Borneo",
    "long": 111.5908,
    "lat": -1.5833
  },
  {
    "id": 104,
    "name": "Batuayau",
    "elevation": 1642,
    "province": "Kalimantan Timur",
    "island": "Borneo",
    "long": 114.8795608,
    "lat": 0.745401545
  },
  {
    "id": 105,
    "name": "Belayan",
    "elevation": 2195,
    "province": "Kalimantan Timur",
    "island": "Borneo",
    "long": 115.9958,
    "lat": 1.5258
  },
  {
    "id": 106,
    "name": "Beratus",
    "elevation": 1235,
    "province": "Kalimantan Timur",
    "island": "Borneo",
    "long": 116.3362424,
    "lat": -1.021139463
  },
  {
    "id": 107,
    "name": "Beriun",
    "elevation": 1325,
    "province": "Kalimantan Timur",
    "island": "Borneo",
    "long": 117.4678162,
    "lat": 1.316367355
  },
  {
    "id": 108,
    "name": "Buntung",
    "elevation": 1042,
    "province": "Kalimantan Timur",
    "island": "Borneo",
    "long": 117.411557,
    "lat": 1.603949
  },
  {
    "id": 109,
    "name": "Buringayok",
    "elevation": 1202,
    "province": "Kalimantan Timur",
    "island": "Borneo",
    "long": 115.3161924,
    "lat": -0.002936699
  },
  {
    "id": 110,
    "name": "Kongpas",
    "elevation": 1516,
    "province": "Kalimantan Timur",
    "island": "Borneo",
    "long": 116.6325,
    "lat": 2.0533
  },
  {
    "id": 111,
    "name": "Kulat North",
    "elevation": 849,
    "province": "Kalimantan Timur",
    "island": "Borneo",
    "long": 117.327544,
    "lat": 1.371803
  },
  {
    "id": 112,
    "name": "Kulat South",
    "elevation": 914,
    "province": "Kalimantan Timur",
    "island": "Borneo",
    "long": 117.284523,
    "lat": 1.251454
  },
  {
    "id": 113,
    "name": "Kundas",
    "elevation": 1252,
    "province": "Kalimantan Timur",
    "island": "Borneo",
    "long": 116.8883,
    "lat": 2.4758
  },
  {
    "id": 114,
    "name": "Liangpran",
    "elevation": 2240,
    "province": "Kalimantan Timur",
    "island": "Borneo",
    "long": 114.3670802,
    "lat": 1.044574829
  },
  {
    "id": 115,
    "name": "Lumut",
    "elevation": 1236,
    "province": "Kalimantan Timur",
    "island": "Borneo",
    "long": 115.9902928,
    "lat": -1.396209241
  },
  {
    "id": 116,
    "name": "Nyaan",
    "elevation": 1660,
    "province": "Kalimantan Timur",
    "island": "Borneo",
    "long": 115.004873,
    "lat": 1.007991
  },
  {
    "id": 117,
    "name": "Nyapa",
    "elevation": 1290,
    "province": "Kalimantan Timur",
    "island": "Borneo",
    "long": 117.4256694,
    "lat": 1.77134785
  },
  {
    "id": 118,
    "name": "Apad Runan",
    "elevation": 2099,
    "province": "Kalimantan Utara",
    "island": "Borneo",
    "long": 115.5871437,
    "lat": 3.450422754
  },
  {
    "id": 119,
    "name": "Batu Jumak",
    "elevation": 2250,
    "province": "Kalimantan Utara",
    "island": "Borneo",
    "long": 115.272663,
    "lat": 1.819609
  },
  {
    "id": 120,
    "name": "Batu Tiban",
    "elevation": 2050,
    "province": "Kalimantan Utara",
    "island": "Borneo",
    "long": 114.6137977,
    "lat": 1.577231547
  },
  {
    "id": 121,
    "name": "Harun",
    "elevation": 2169,
    "province": "Kalimantan Utara",
    "island": "Borneo",
    "long": 115.8071164,
    "lat": 4.125584744
  },
  {
    "id": 122,
    "name": "Kelembit",
    "elevation": 1890,
    "province": "Kalimantan Utara",
    "island": "Borneo",
    "long": 115.9179416,
    "lat": 2.86048423
  },
  {
    "id": 123,
    "name": "Kujat",
    "elevation": 2024,
    "province": "Kalimantan Utara",
    "island": "Borneo",
    "long": 116.4938138,
    "lat": 2.482947705
  },
  {
    "id": 124,
    "name": "Latuk",
    "elevation": 2064,
    "province": "Kalimantan Utara",
    "island": "Borneo",
    "long": 115.6833,
    "lat": 2.8808
  },
  {
    "id": 125,
    "name": "North Kalimantan Peak 1964",
    "elevation": 1964,
    "province": "Kalimantan Utara",
    "island": "Borneo",
    "long": 115.2995616,
    "lat": 2.175408597
  },
  {
    "id": 126,
    "name": "North Kalimantan Peak 2219",
    "elevation": 2219,
    "province": "Kalimantan Utara",
    "island": "Borneo",
    "long": 115.960743,
    "lat": 2.274105
  },
  {
    "id": 127,
    "name": "Jantan",
    "elevation": 439,
    "province": "Kepulauan Riau",
    "island": "Karimun",
    "long": 103.35749,
    "lat": 1.09823
  },
  {
    "id": 128,
    "name": "Daik",
    "elevation": 1165,
    "province": "Kepulauan Riau",
    "island": "Lingga",
    "long": 104.550122,
    "lat": -0.195861457
  },
  {
    "id": 129,
    "name": "Ranai",
    "elevation": 1035,
    "province": "Kepulauan Riau",
    "island": "Natuna Besar",
    "long": 108.336162,
    "lat": 3.975622
  },
  {
    "id": 130,
    "name": "Anak Krakatau",
    "elevation": 157,
    "province": "Lampung",
    "island": "Anak Krakatau",
    "long": 105.4234129,
    "lat": -6.10118447
  },
  {
    "id": 131,
    "name": "Rakata",
    "elevation": 813,
    "province": "Lampung",
    "island": "Rakata",
    "long": 105.4399825,
    "lat": -6.145814386
  },
  {
    "id": 132,
    "name": "Sebesi",
    "elevation": 844,
    "province": "Lampung",
    "island": "Sebesi",
    "long": 105.48282858,
    "lat": -5.95433562
  },
  {
    "id": 133,
    "name": "Pesagi",
    "elevation": 2230,
    "province": "Lampung",
    "island": "Sumatera",
    "long": 104.14645,
    "lat": -4.92337
  },
  {
    "id": 134,
    "name": "Pesawaran (Ratai)",
    "elevation": 1682,
    "province": "Lampung",
    "island": "Sumatera",
    "long": 105.095197,
    "lat": -5.513347
  },
  {
    "id": 135,
    "name": "Pugung",
    "elevation": 1964,
    "province": "Lampung",
    "island": "Sumatera",
    "long": 103.86,
    "lat": -4.9758
  },
  {
    "id": 136,
    "name": "Rajabasa",
    "elevation": 1281,
    "province": "Lampung",
    "island": "Sumatera",
    "long": 105.627386,
    "lat": -5.781564
  },
  {
    "id": 137,
    "name": "Seminung",
    "elevation": 1881,
    "province": "Lampung",
    "island": "Sumatera",
    "long": 103.96304,
    "lat": -4.91081
  },
  {
    "id": 138,
    "name": "Tanggamus",
    "elevation": 2102,
    "province": "Lampung",
    "island": "Sumatera",
    "long": 104.67480398,
    "lat": -5.42709765
  },
  {
    "id": 139,
    "name": "Tebak",
    "elevation": 2115,
    "province": "Lampung",
    "island": "Sumatera",
    "long": 104.57543,
    "lat": -5.0084
  },
  {
    "id": 140,
    "name": "Salahutu",
    "elevation": 1038,
    "province": "Maluku",
    "island": "Ambon",
    "long": 128.255799,
    "lat": -3.545684
  },
  {
    "id": 141,
    "name": "Banda Api",
    "elevation": 640,
    "province": "Maluku",
    "island": "Banda Api",
    "long": 129.8808342,
    "lat": -4.522509163
  },
  {
    "id": 142,
    "name": "Batakbual",
    "elevation": 1750,
    "province": "Maluku",
    "island": "Buru",
    "long": 127.1481874,
    "lat": -3.514102078
  },
  {
    "id": 143,
    "name": "Kapalatmada",
    "elevation": 2700,
    "province": "Maluku",
    "island": "Buru",
    "long": 126.219893,
    "lat": -3.300647
  },
  {
    "id": 144,
    "name": "Siel",
    "elevation": 2070,
    "province": "Maluku",
    "island": "Buru",
    "long": 126.4783,
    "lat": -3.3317
  },
  {
    "id": 145,
    "name": "Wurlali",
    "elevation": 868,
    "province": "Maluku",
    "island": "Damar",
    "long": 128.673538,
    "lat": -7.121887
  },
  {
    "id": 146,
    "name": "Gunungapi Wetar",
    "elevation": 282,
    "province": "Maluku",
    "island": "Gunungapi Wetar",
    "long": 126.660687,
    "lat": -6.63515
  },
  {
    "id": 147,
    "name": "Manuk",
    "elevation": 282,
    "province": "Maluku",
    "island": "Manuk",
    "long": 130.306274,
    "lat": -5.543443
  },
  {
    "id": 148,
    "name": "Laworkawra",
    "elevation": 781,
    "province": "Maluku",
    "island": "Nila",
    "long": 129.51374,
    "lat": -6.740797
  },
  {
    "id": 149,
    "name": "Binaiya",
    "elevation": 3027,
    "province": "Maluku",
    "island": "Seram",
    "long": 129.454666,
    "lat": -3.173535
  },
  {
    "id": 150,
    "name": "Gecilia (Solita Batu)",
    "elevation": 1473,
    "province": "Maluku",
    "island": "Seram",
    "long": 128.6326295,
    "lat": -3.056533048
  },
  {
    "id": 151,
    "name": "Sahuai",
    "elevation": 1050,
    "province": "Maluku",
    "island": "Seram",
    "long": 128.0150158,
    "lat": -3.220263481
  },
  {
    "id": 152,
    "name": "Toplana (Totaniwel)",
    "elevation": 1334,
    "province": "Maluku",
    "island": "Seram",
    "long": 128.5,
    "lat": -3.383543217
  },
  {
    "id": 153,
    "name": "Wuarlapna",
    "elevation": 641,
    "province": "Maluku",
    "island": "Serua",
    "long": 130.01704,
    "lat": -6.312322
  },
  {
    "id": 154,
    "name": "Serawerna",
    "elevation": 655,
    "province": "Maluku",
    "island": "Teun",
    "long": 129.144077,
    "lat": -6.976305
  },
  {
    "id": 155,
    "name": "Lalaitu",
    "elevation": 1412,
    "province": "Maluku",
    "island": "Wetar",
    "long": 126.5133083,
    "lat": -7.684156584
  },
  {
    "id": 156,
    "name": "Buku Rica (Meng)",
    "elevation": 1155,
    "province": "Maluku Utara",
    "island": "Bacan",
    "long": 127.6118635,
    "lat": -0.492156857
  },
  {
    "id": 157,
    "name": "Buku Sibela",
    "elevation": 2111,
    "province": "Maluku Utara",
    "island": "Bacan",
    "long": 127.524383,
    "lat": -0.73703
  },
  {
    "id": 158,
    "name": "Dukono",
    "elevation": 1259,
    "province": "Maluku Utara",
    "island": "Halmahera",
    "long": 127.8941435,
    "lat": 1.693293421
  },
  {
    "id": 159,
    "name": "Gamkonora",
    "elevation": 1571,
    "province": "Maluku Utara",
    "island": "Halmahera",
    "long": 127.534107,
    "lat": 1.378354
  },
  {
    "id": 160,
    "name": "Ibu",
    "elevation": 1377,
    "province": "Maluku Utara",
    "island": "Halmahera",
    "long": 127.6304989,
    "lat": 1.490672073
  },
  {
    "id": 161,
    "name": "Jailolo",
    "elevation": 1030,
    "province": "Maluku Utara",
    "island": "Halmahera",
    "long": 127.4392848,
    "lat": 1.080376118
  },
  {
    "id": 162,
    "name": "Rogirogi",
    "elevation": 1250,
    "province": "Maluku Utara",
    "island": "Halmahera",
    "long": 127.7569442,
    "lat": -0.265975189
  },
  {
    "id": 163,
    "name": "Watowato",
    "elevation": 1442,
    "province": "Maluku Utara",
    "island": "Halmahera",
    "long": 128.1089087,
    "lat": 1.013364948
  },
  {
    "id": 164,
    "name": "Kie Besi (Mailoa)",
    "elevation": 1357,
    "province": "Maluku Utara",
    "island": "Makian",
    "long": 127.3911111,
    "lat": 0.318858893
  },
  {
    "id": 165,
    "name": "Loku",
    "elevation": 1135,
    "province": "Maluku Utara",
    "island": "Mangoli",
    "long": 126.052467,
    "lat": -1.831807162
  },
  {
    "id": 166,
    "name": "Sabatai",
    "elevation": 1220,
    "province": "Maluku Utara",
    "island": "Morotai",
    "long": 128.4336655,
    "lat": 2.229142606
  },
  {
    "id": 167,
    "name": "Pulau Obi",
    "elevation": 1611,
    "province": "Maluku Utara",
    "island": "Obi",
    "long": 127.6687102,
    "lat": -1.538142679
  },
  {
    "id": 168,
    "name": "Pulau Taliabu (Lida Godo)",
    "elevation": 1415,
    "province": "Maluku Utara",
    "island": "Taliabu",
    "long": 124.7247496,
    "lat": -1.79388
  },
  {
    "id": 169,
    "name": "Gamalama",
    "elevation": 1715,
    "province": "Maluku Utara",
    "island": "Ternate",
    "long": 127.3330407,
    "lat": 0.809076656
  },
  {
    "id": 170,
    "name": "Kiematubu",
    "elevation": 1750,
    "province": "Maluku Utara",
    "island": "Tidore",
    "long": 127.402957,
    "lat": 0.662026
  },
  {
    "id": 171,
    "name": "Abong Abong",
    "elevation": 2985,
    "province": "Nanggroe Aceh Darussalam",
    "island": "Sumatera",
    "long": 96.79502197,
    "lat": 4.241619577
  },
  {
    "id": 172,
    "name": "Bandahara",
    "elevation": 3012,
    "province": "Nanggroe Aceh Darussalam",
    "island": "Sumatera",
    "long": 97.7816862,
    "lat": 3.749174432
  },
  {
    "id": 173,
    "name": "Bur ni Geureudong",
    "elevation": 2885,
    "province": "Nanggroe Aceh Darussalam",
    "island": "Sumatera",
    "long": 96.816312,
    "lat": 4.810578
  },
  {
    "id": 174,
    "name": "Bur ni Kelieten",
    "elevation": 2635,
    "province": "Nanggroe Aceh Darussalam",
    "island": "Sumatera",
    "long": 96.95758,
    "lat": 4.55218
  },
  {
    "id": 175,
    "name": "Hulumasen",
    "elevation": 2315,
    "province": "Nanggroe Aceh Darussalam",
    "island": "Sumatera",
    "long": 95.63335933,
    "lat": 5.044079482
  },
  {
    "id": 176,
    "name": "Kurik",
    "elevation": 3085,
    "province": "Nanggroe Aceh Darussalam",
    "island": "Sumatera",
    "long": 97.420548,
    "lat": 4.251664
  },
  {
    "id": 177,
    "name": "Leuser",
    "elevation": 3466,
    "province": "Nanggroe Aceh Darussalam",
    "island": "Sumatera",
    "long": 97.21927606,
    "lat": 3.797584071
  },
  {
    "id": 178,
    "name": "Peuet Sagoe",
    "elevation": 2801,
    "province": "Nanggroe Aceh Darussalam",
    "island": "Sumatera",
    "long": 96.328804,
    "lat": 4.915084
  },
  {
    "id": 179,
    "name": "Sembuang",
    "elevation": 2028,
    "province": "Nanggroe Aceh Darussalam",
    "island": "Sumatera",
    "long": 97.40842741,
    "lat": 4.635839366
  },
  {
    "id": 180,
    "name": "Seulawah Agam",
    "elevation": 1810,
    "province": "Nanggroe Aceh Darussalam",
    "island": "Sumatera",
    "long": 95.655888,
    "lat": 5.447142
  },
  {
    "id": 181,
    "name": "Kemiri",
    "elevation": 3317,
    "province": "Nanggroe Aceh Darussalam",
    "island": "Sumatra",
    "long": 97.479052,
    "lat": 3.74773
  },
  {
    "id": 182,
    "name": "Pulau Weh (Cot Kulam)",
    "elevation": 630,
    "province": "Nanggroe Aceh Darussalam",
    "island": "Weh",
    "long": 95.28168038,
    "lat": 5.812588542
  },
  {
    "id": 183,
    "name": "Rinjani",
    "elevation": 3726,
    "province": "Nusa Tenggara Barat",
    "island": "Lombok",
    "long": 116.45813,
    "lat": -8.41166
  },
  {
    "id": 184,
    "name": "Sempana",
    "elevation": 2329,
    "province": "Nusa Tenggara Barat",
    "island": "Lombok",
    "long": 116.5714,
    "lat": -8.41911
  },
  {
    "id": 185,
    "name": "Sangeang",
    "elevation": 1949,
    "province": "Nusa Tenggara Barat",
    "island": "Sangeang",
    "long": 119.069796,
    "lat": -8.19589
  },
  {
    "id": 186,
    "name": "Doro Dindi",
    "elevation": 1618,
    "province": "Nusa Tenggara Barat",
    "island": "Sumbawa",
    "long": 118.5424,
    "lat": -8.39386
  },
  {
    "id": 187,
    "name": "Doro Pundunence",
    "elevation": 1433,
    "province": "Nusa Tenggara Barat",
    "island": "Sumbawa",
    "long": 118.9241941,
    "lat": -8.482451704
  },
  {
    "id": 188,
    "name": "Olet Sangenges",
    "elevation": 1871,
    "province": "Nusa Tenggara Barat",
    "island": "Sumbawa",
    "long": 117.12222,
    "lat": -8.58033
  },
  {
    "id": 189,
    "name": "Olet Takan",
    "elevation": 1336,
    "province": "Nusa Tenggara Barat",
    "island": "Sumbawa",
    "long": 117.4898993,
    "lat": -8.83692496
  },
  {
    "id": 190,
    "name": "Tambora",
    "elevation": 2722,
    "province": "Nusa Tenggara Barat",
    "island": "Sumbawa",
    "long": 117.958804,
    "lat": -8.246612
  },
  {
    "id": 191,
    "name": "Ili Boleng",
    "elevation": 1658,
    "province": "Nusa Tenggara Timur",
    "island": "Adonara",
    "long": 123.256258,
    "lat": -8.345548
  },
  {
    "id": 192,
    "name": "Dola Koyakoya",
    "elevation": 1821,
    "province": "Nusa Tenggara Timur",
    "island": "Alor",
    "long": 125.0206,
    "lat": -8.2212
  },
  {
    "id": 193,
    "name": "Pulau Besar",
    "elevation": 913,
    "province": "Nusa Tenggara Timur",
    "island": "Besar",
    "long": 122.369761,
    "lat": -8.462778
  },
  {
    "id": 194,
    "name": "Curunumbeng",
    "elevation": 1992,
    "province": "Nusa Tenggara Timur",
    "island": "Flores",
    "long": 120.3271225,
    "lat": -8.717248228
  },
  {
    "id": 195,
    "name": "Ebulobo",
    "elevation": 2137,
    "province": "Nusa Tenggara Timur",
    "island": "Flores",
    "long": 121.1905212,
    "lat": -8.8171169
  },
  {
    "id": 196,
    "name": "Egon",
    "elevation": 1708,
    "province": "Nusa Tenggara Timur",
    "island": "Flores",
    "long": 122.4550254,
    "lat": -8.675868027
  },
  {
    "id": 197,
    "name": "Ili Mandiri",
    "elevation": 1484,
    "province": "Nusa Tenggara Timur",
    "island": "Flores",
    "long": 122.9677965,
    "lat": -8.31428482
  },
  {
    "id": 198,
    "name": "Ili Wukoh",
    "elevation": 1431,
    "province": "Nusa Tenggara Timur",
    "island": "Flores",
    "long": 122.6550254,
    "lat": -8.57090308
  },
  {
    "id": 199,
    "name": "Inerie",
    "elevation": 2227,
    "province": "Nusa Tenggara Timur",
    "island": "Flores",
    "long": 120.95442,
    "lat": -8.87807
  },
  {
    "id": 200,
    "name": "Iya",
    "elevation": 657,
    "province": "Nusa Tenggara Timur",
    "island": "Flores",
    "long": 121.641193,
    "lat": -8.891279
  },
  {
    "id": 201,
    "name": "Keli Lepembusu",
    "elevation": 1754,
    "province": "Nusa Tenggara Timur",
    "island": "Flores",
    "long": 121.811066,
    "lat": -8.672733
  },
  {
    "id": 202,
    "name": "Kelimutu (Inspiration Point)",
    "elevation": 1647,
    "province": "Nusa Tenggara Timur",
    "island": "Flores",
    "long": 121.8123036,
    "lat": -8.76436112
  },
  {
    "id": 203,
    "name": "Lewotobi",
    "elevation": 1703,
    "province": "Nusa Tenggara Timur",
    "island": "Flores",
    "long": 122.7818528,
    "lat": -8.554522879
  },
  {
    "id": 204,
    "name": "Mbeliling",
    "elevation": 1275,
    "province": "Nusa Tenggara Timur",
    "island": "Flores",
    "long": 119.97625,
    "lat": -8.6152
  },
  {
    "id": 205,
    "name": "Poco Ngandonalu",
    "elevation": 2367,
    "province": "Nusa Tenggara Timur",
    "island": "Flores",
    "long": 120.447987,
    "lat": -8.651713
  },
  {
    "id": 206,
    "name": "Poco Ranakah",
    "elevation": 2282,
    "province": "Nusa Tenggara Timur",
    "island": "Flores",
    "long": 120.531034,
    "lat": -8.636624
  },
  {
    "id": 207,
    "name": "Batu Tara",
    "elevation": 748,
    "province": "Nusa Tenggara Timur",
    "island": "Komba",
    "long": 123.585215,
    "lat": -7.790701
  },
  {
    "id": 208,
    "name": "Ara",
    "elevation": 824,
    "province": "Nusa Tenggara Timur",
    "island": "Komodo",
    "long": 119.4475089,
    "lat": -8.56509706
  },
  {
    "id": 209,
    "name": "Ili Labalekang",
    "elevation": 1621,
    "province": "Nusa Tenggara Timur",
    "island": "Lembata",
    "long": 123.38432,
    "lat": -8.54454
  },
  {
    "id": 210,
    "name": "Ili Uyelewun",
    "elevation": 1523,
    "province": "Nusa Tenggara Timur",
    "island": "Lembata",
    "long": 123.7757767,
    "lat": -8.21355385
  },
  {
    "id": 211,
    "name": "Ili Werung",
    "elevation": 1030,
    "province": "Nusa Tenggara Timur",
    "island": "Lembata",
    "long": 123.563357,
    "lat": -8.519914
  },
  {
    "id": 212,
    "name": "Lewotolo",
    "elevation": 1455,
    "province": "Nusa Tenggara Timur",
    "island": "Lembata",
    "long": 123.5078122,
    "lat": -8.27405539
  },
  {
    "id": 213,
    "name": "Mules (Poco Kepi)",
    "elevation": 549,
    "province": "Nusa Tenggara Timur",
    "island": "Mules",
    "long": 120.270207,
    "lat": -8.897429
  },
  {
    "id": 214,
    "name": "Rokatenda",
    "elevation": 875,
    "province": "Nusa Tenggara Timur",
    "island": "Paluwe",
    "long": 121.710096,
    "lat": -8.328998
  },
  {
    "id": 215,
    "name": "Sirung (Kukka Taupekki)",
    "elevation": 1344,
    "province": "Nusa Tenggara Timur",
    "island": "Pantar",
    "long": 124.1053909,
    "lat": -8.519167025
  },
  {
    "id": 216,
    "name": "Tuntuli",
    "elevation": 959,
    "province": "Nusa Tenggara Timur",
    "island": "Pantar",
    "long": 124.2883792,
    "lat": -8.307596249
  },
  {
    "id": 217,
    "name": "Pura (Gunung Maru)",
    "elevation": 986,
    "province": "Nusa Tenggara Timur",
    "island": "Pura",
    "long": 124.3500147,
    "lat": -8.300005263
  },
  {
    "id": 218,
    "name": "Dora Ora",
    "elevation": 735,
    "province": "Nusa Tenggara Timur",
    "island": "Rinca",
    "long": 119.681597,
    "lat": -8.765044
  },
  {
    "id": 219,
    "name": "Wanggameti",
    "elevation": 1225,
    "province": "Nusa Tenggara Timur",
    "island": "Sumba",
    "long": 120.236373,
    "lat": -10.116348
  },
  {
    "id": 220,
    "name": "Fatu Timau",
    "elevation": 1774,
    "province": "Nusa Tenggara Timur",
    "island": "Timor",
    "long": 123.93999,
    "lat": -9.58061
  },
  {
    "id": 221,
    "name": "Mutis",
    "elevation": 2417,
    "province": "Nusa Tenggara Timur",
    "island": "Timor",
    "long": 124.22755,
    "lat": -9.56047
  },
  {
    "id": 222,
    "name": "Bonsupiori",
    "elevation": 1034,
    "province": "Papua",
    "island": "Supiori",
    "long": 135.605609,
    "lat": -0.806819
  },
  {
    "id": 223,
    "name": "Pulau Yapen",
    "elevation": 1496,
    "province": "Papua",
    "island": "Yapen",
    "long": 136.4282859,
    "lat": -1.770850659
  },
  {
    "id": 224,
    "name": "Batanta (Kalaikut)",
    "elevation": 1184,
    "province": "Papua Barat",
    "island": "Batanta",
    "long": 130.624031,
    "lat": -0.857636
  },
  {
    "id": 225,
    "name": "Arfak (Mebo)",
    "elevation": 2955,
    "province": "Papua Barat",
    "island": "New Guinea",
    "long": 133.979555,
    "lat": -1.156326
  },
  {
    "id": 226,
    "name": "Fak Fak Mountains",
    "elevation": 1490,
    "province": "Papua Barat",
    "island": "New Guinea",
    "long": 132.551738,
    "lat": -2.963357663
  },
  {
    "id": 227,
    "name": "Fudi (Gnowo)",
    "elevation": 1663,
    "province": "Papua Barat",
    "island": "New Guinea",
    "long": 133.8641797,
    "lat": -3.361666855
  },
  {
    "id": 228,
    "name": "Irau",
    "elevation": 2500,
    "province": "Papua Barat",
    "island": "New Guinea",
    "long": 132.8891583,
    "lat": -0.661678284
  },
  {
    "id": 229,
    "name": "Kumawa",
    "elevation": 1680,
    "province": "Papua Barat",
    "island": "New Guinea",
    "long": 133.010785,
    "lat": -3.915228
  },
  {
    "id": 230,
    "name": "Niefeb",
    "elevation": 2726,
    "province": "Papua Barat",
    "island": "New Guinea",
    "long": 133.5433407,
    "lat": -1.125885431
  },
  {
    "id": 231,
    "name": "Pegunungan Charles Louis",
    "elevation": 1587,
    "province": "Papua Barat",
    "island": "New Guinea",
    "long": 135.245,
    "lat": -3.7508
  },
  {
    "id": 232,
    "name": "Pt.1540m, Papua Barat",
    "elevation": 1540,
    "province": "Papua Barat",
    "island": "New Guinea",
    "long": 134.1992,
    "lat": -3.0633
  },
  {
    "id": 233,
    "name": "Tohkier",
    "elevation": 2461,
    "province": "Papua Barat",
    "island": "New Guinea",
    "long": 132.3133977,
    "lat": -0.654160223
  },
  {
    "id": 234,
    "name": "Wagura",
    "elevation": 1180,
    "province": "Papua Barat",
    "island": "New Guinea",
    "long": 133.8667,
    "lat": -2.7883
  },
  {
    "id": 235,
    "name": "Wondiwoi",
    "elevation": 2187,
    "province": "Papua Barat",
    "island": "New Guinea",
    "long": 134.5842137,
    "lat": -2.733248595
  },
  {
    "id": 236,
    "name": "Pulau Waigeo",
    "elevation": 1000,
    "province": "Papua Barat",
    "island": "Waigeo",
    "long": 130.8517,
    "lat": -0.0417
  },
  {
    "id": 237,
    "name": "Buttu Tinaungan",
    "elevation": 1681,
    "province": "Sulawesi Barat",
    "island": "Sulawesi",
    "long": 119.0458,
    "lat": -2.7367
  },
  {
    "id": 238,
    "name": "Gandangdewata",
    "elevation": 3074,
    "province": "Sulawesi Barat",
    "island": "Sulawesi",
    "long": 119.368518,
    "lat": -2.748024
  },
  {
    "id": 239,
    "name": "Tinangko",
    "elevation": 2730,
    "province": "Sulawesi Barat",
    "island": "Sulawesi",
    "long": 119.811152,
    "lat": -2.102528
  },
  {
    "id": 240,
    "name": "Ambeso",
    "elevation": 1971,
    "province": "Sulawesi Selatan",
    "island": "Sulawesi",
    "long": 119.80342,
    "lat": -3.21368
  },
  {
    "id": 241,
    "name": "Balease (Tolangi)",
    "elevation": 3016,
    "province": "Sulawesi Selatan",
    "island": "Sulawesi",
    "long": 120.5419395,
    "lat": -2.405672742
  },
  {
    "id": 242,
    "name": "Bawakaraeng",
    "elevation": 2840,
    "province": "Sulawesi Selatan",
    "island": "Sulawesi",
    "long": 119.944601,
    "lat": -5.316659
  },
  {
    "id": 243,
    "name": "Buntu Puang",
    "elevation": 1925,
    "province": "Sulawesi Selatan",
    "island": "Sulawesi",
    "long": 120.0849928,
    "lat": -3.007684919
  },
  {
    "id": 244,
    "name": "Kambuno (Lantangunta)",
    "elevation": 2855,
    "province": "Sulawesi Selatan",
    "island": "Sulawesi",
    "long": 120.0710882,
    "lat": -2.354684454
  },
  {
    "id": 245,
    "name": "Moncong Lompobatang",
    "elevation": 2886,
    "province": "Sulawesi Selatan",
    "island": "Sulawesi",
    "long": 119.93467,
    "lat": -5.35361
  },
  {
    "id": 246,
    "name": "Rantemario",
    "elevation": 3440,
    "province": "Sulawesi Selatan",
    "island": "Sulawesi",
    "long": 120.024299,
    "lat": -3.385134
  },
  {
    "id": 247,
    "name": "Tondongkarambu",
    "elevation": 1694,
    "province": "Sulawesi Selatan",
    "island": "Sulawesi",
    "long": 119.808002,
    "lat": -4.758559
  },
  {
    "id": 248,
    "name": "Tombia",
    "elevation": 1031,
    "province": "Sulawesi Tengah",
    "island": "Peleng",
    "long": 122.96,
    "lat": -1.365
  },
  {
    "id": 249,
    "name": "Batui",
    "elevation": 1930,
    "province": "Sulawesi Tengah",
    "island": "Sulawesi",
    "long": 122.081435,
    "lat": -1.360962
  },
  {
    "id": 250,
    "name": "Bulu Nti",
    "elevation": 2324,
    "province": "Sulawesi Tengah",
    "island": "Sulawesi",
    "long": 119.80073,
    "lat": -1.08675
  },
  {
    "id": 251,
    "name": "Buyu Lumut",
    "elevation": 2403,
    "province": "Sulawesi Tengah",
    "island": "Sulawesi",
    "long": 121.8033832,
    "lat": -1.203633684
  },
  {
    "id": 252,
    "name": "Galang",
    "elevation": 2253,
    "province": "Sulawesi Tengah",
    "island": "Sulawesi",
    "long": 120.9344902,
    "lat": 1.062563774
  },
  {
    "id": 253,
    "name": "Gawalise",
    "elevation": 2029,
    "province": "Sulawesi Tengah",
    "island": "Sulawesi",
    "long": 119.769499,
    "lat": -0.910706
  },
  {
    "id": 254,
    "name": "Kandela",
    "elevation": 2870,
    "province": "Sulawesi Tengah",
    "island": "Sulawesi",
    "long": 121.542921,
    "lat": -1.299138
  },
  {
    "id": 255,
    "name": "Katopasa",
    "elevation": 2825,
    "province": "Sulawesi Tengah",
    "island": "Sulawesi",
    "long": 121.426396,
    "lat": -1.240104
  },
  {
    "id": 256,
    "name": "Malino",
    "elevation": 2410,
    "province": "Sulawesi Tengah",
    "island": "Sulawesi",
    "long": 120.887632,
    "lat": 0.705822
  },
  {
    "id": 257,
    "name": "Masamba",
    "elevation": 1808,
    "province": "Sulawesi Tengah",
    "island": "Sulawesi",
    "long": 121.252517,
    "lat": -1.754487
  },
  {
    "id": 258,
    "name": "Nokilalaki",
    "elevation": 2370,
    "province": "Sulawesi Tengah",
    "island": "Sulawesi",
    "long": 120.16663,
    "lat": -1.25535
  },
  {
    "id": 259,
    "name": "Pompangeo",
    "elevation": 2590,
    "province": "Sulawesi Tengah",
    "island": "Sulawesi",
    "long": 120.998601,
    "lat": -1.683598632
  },
  {
    "id": 260,
    "name": "Sidole",
    "elevation": 1785,
    "province": "Sulawesi Tengah",
    "island": "Sulawesi",
    "long": 119.95919,
    "lat": -0.54335
  },
  {
    "id": 261,
    "name": "Sojol",
    "elevation": 2890,
    "province": "Sulawesi Tengah",
    "island": "Sulawesi",
    "long": 120.2048,
    "lat": 0.577422
  },
  {
    "id": 262,
    "name": "Tambusisi",
    "elevation": 2422,
    "province": "Sulawesi Tengah",
    "island": "Sulawesi",
    "long": 121.39058,
    "lat": -1.637161
  },
  {
    "id": 263,
    "name": "Tokala",
    "elevation": 2593,
    "province": "Sulawesi Tengah",
    "island": "Sulawesi",
    "long": 121.670816,
    "lat": -1.612362
  },
  {
    "id": 264,
    "name": "Tompotika",
    "elevation": 1540,
    "province": "Sulawesi Tengah",
    "island": "Sulawesi",
    "long": 123.11115,
    "lat": -0.68089
  },
  {
    "id": 265,
    "name": "Torenali",
    "elevation": 2526,
    "province": "Sulawesi Tengah",
    "island": "Sulawesi",
    "long": 120.309285,
    "lat": -1.275824
  },
  {
    "id": 266,
    "name": "Torompupu",
    "elevation": 2495,
    "province": "Sulawesi Tengah",
    "island": "Sulawesi",
    "long": 119.8563374,
    "lat": -1.424819863
  },
  {
    "id": 267,
    "name": "Tumpu",
    "elevation": 2565,
    "province": "Sulawesi Tengah",
    "island": "Sulawesi",
    "long": 122.1902466,
    "lat": -1.064263652
  },
  {
    "id": 268,
    "name": "Colo",
    "elevation": 435,
    "province": "Sulawesi Tengah",
    "island": "Una-una",
    "long": 121.611108,
    "lat": -0.1778
  },
  {
    "id": 269,
    "name": "Kabawo Lambohogo",
    "elevation": 1063,
    "province": "Sulawesi Tenggara",
    "island": "Butung",
    "long": 122.969898,
    "lat": -4.486635052
  },
  {
    "id": 270,
    "name": "Sabampolulu",
    "elevation": 1570,
    "province": "Sulawesi Tenggara",
    "island": "Kabaena",
    "long": 121.9558478,
    "lat": -5.308634588
  },
  {
    "id": 271,
    "name": "Libukang",
    "elevation": 2242,
    "province": "Sulawesi Tenggara",
    "island": "Sulawesi",
    "long": 121.1950375,
    "lat": -3.223334149
  },
  {
    "id": 272,
    "name": "Mekongga",
    "elevation": 2650,
    "province": "Sulawesi Tenggara",
    "island": "Sulawesi",
    "long": 121.23673,
    "lat": -3.6644
  },
  {
    "id": 273,
    "name": "Osu Nondoto",
    "elevation": 2421,
    "province": "Sulawesi Tenggara",
    "island": "Sulawesi",
    "long": 121.5577381,
    "lat": -3.386059497
  },
  {
    "id": 274,
    "name": "Wawo Lantambaga",
    "elevation": 909,
    "province": "Sulawesi Tenggara",
    "island": "Wowoni",
    "long": 123.0955376,
    "lat": -4.161315253
  },
  {
    "id": 275,
    "name": "Awu",
    "elevation": 1340,
    "province": "Sulawesi Utara",
    "island": "Great Sangihe",
    "long": 125.4476848,
    "lat": 3.688319262
  },
  {
    "id": 276,
    "name": "Manado Tua",
    "elevation": 800,
    "province": "Sulawesi Utara",
    "island": "Manadotua",
    "long": 124.695322,
    "lat": 1.631218
  },
  {
    "id": 277,
    "name": "Ruang",
    "elevation": 725,
    "province": "Sulawesi Utara",
    "island": "Ruang",
    "long": 125.368593,
    "lat": 2.306442
  },
  {
    "id": 278,
    "name": "Karangetang",
    "elevation": 1827,
    "province": "Sulawesi Utara",
    "island": "Siau",
    "long": 125.4070813,
    "lat": 2.780878661
  },
  {
    "id": 279,
    "name": "Ambang",
    "elevation": 1795,
    "province": "Sulawesi Utara",
    "island": "Sulawesi",
    "long": 124.415918,
    "lat": 0.757376
  },
  {
    "id": 280,
    "name": "Dua Saudara",
    "elevation": 1351,
    "province": "Sulawesi Utara",
    "island": "Sulawesi",
    "long": 125.158313,
    "lat": 1.485378
  },
  {
    "id": 281,
    "name": "Klabat",
    "elevation": 1990,
    "province": "Sulawesi Utara",
    "island": "Sulawesi",
    "long": 125.031258,
    "lat": 1.453344
  },
  {
    "id": 282,
    "name": "Lokon",
    "elevation": 1580,
    "province": "Sulawesi Utara",
    "island": "Sulawesi",
    "long": 124.797145,
    "lat": 1.35627
  },
  {
    "id": 283,
    "name": "Matabulawa",
    "elevation": 1964,
    "province": "Sulawesi Utara",
    "island": "Sulawesi",
    "long": 123.6735214,
    "lat": 0.490217045
  },
  {
    "id": 284,
    "name": "Soputan",
    "elevation": 1809,
    "province": "Sulawesi Utara",
    "island": "Sulawesi",
    "long": 124.7349928,
    "lat": 1.112518088
  },
  {
    "id": 285,
    "name": "Bukiri Kalongan",
    "elevation": 786,
    "province": "Sulawesi Utara",
    "island": "Thulandang",
    "long": 125.4391806,
    "lat": 2.345014422
  },
  {
    "id": 286,
    "name": "Hijau",
    "elevation": 2274,
    "province": "Sumatera Barat",
    "island": "Sumatera",
    "long": 100.2417,
    "lat": 0.1425
  },
  {
    "id": 287,
    "name": "Marapi",
    "elevation": 2891,
    "province": "Sumatera Barat",
    "island": "Sumatera",
    "long": 100.47357,
    "lat": -0.38039
  },
  {
    "id": 288,
    "name": "Pantaicermin",
    "elevation": 2690,
    "province": "Sumatera Barat",
    "island": "Sumatera",
    "long": 100.8017321,
    "lat": -1.278288294
  },
  {
    "id": 289,
    "name": "Sago",
    "elevation": 2262,
    "province": "Sumatera Barat",
    "island": "Sumatera",
    "long": 100.67319,
    "lat": -0.324129
  },
  {
    "id": 290,
    "name": "Singgalang",
    "elevation": 2877,
    "province": "Sumatera Barat",
    "island": "Sumatera",
    "long": 100.3308135,
    "lat": -0.389989451
  },
  {
    "id": 291,
    "name": "Talakmau",
    "elevation": 2919,
    "province": "Sumatera Barat",
    "island": "Sumatera",
    "long": 99.983912,
    "lat": 0.078864
  },
  {
    "id": 292,
    "name": "Talang",
    "elevation": 2597,
    "province": "Sumatera Barat",
    "island": "Sumatera",
    "long": 100.68163,
    "lat": -0.978874
  },
  {
    "id": 293,
    "name": "Malintang",
    "elevation": 1983,
    "province": "Sumatera Barat",
    "island": "Sumatra",
    "long": 99.651475,
    "lat": 0.477422
  },
  {
    "id": 294,
    "name": "Bukit Jempol",
    "elevation": 670,
    "province": "Sumatera Selatan",
    "island": "Sumatera",
    "long": 103.671023,
    "lat": -3.811568
  },
  {
    "id": 295,
    "name": "Dempo",
    "elevation": 3173,
    "province": "Sumatera Selatan",
    "island": "Sumatera",
    "long": 103.127995,
    "lat": -4.015477
  },
  {
    "id": 296,
    "name": "Gumai",
    "elevation": 1796,
    "province": "Sumatera Selatan",
    "island": "Sumatera",
    "long": 103.278362,
    "lat": -3.883681
  },
  {
    "id": 297,
    "name": "Pasu",
    "elevation": 2078,
    "province": "Sumatera Selatan",
    "island": "Sumatera",
    "long": 102.621782,
    "lat": -3.338151924
  },
  {
    "id": 298,
    "name": "Patah",
    "elevation": 2850,
    "province": "Sumatera Selatan",
    "island": "Sumatera",
    "long": 103.3057421,
    "lat": -4.257579796
  },
  {
    "id": 299,
    "name": "Samosir",
    "elevation": 1698,
    "province": "Sumatera Utara",
    "island": "Samosir",
    "long": 98.831913,
    "lat": 2.640618
  },
  {
    "id": 300,
    "name": "Dolok Gongonan",
    "elevation": 1440,
    "province": "Sumatera Utara",
    "island": "Sumatera",
    "long": 99.33005374,
    "lat": 1.152930317
  },
  {
    "id": 301,
    "name": "Dolok Nabibong",
    "elevation": 2015,
    "province": "Sumatera Utara",
    "island": "Sumatera",
    "long": 99.3858,
    "lat": 1.7517
  },
  {
    "id": 302,
    "name": "Kulabu",
    "elevation": 2173,
    "province": "Sumatera Utara",
    "island": "Sumatera",
    "long": 99.8975,
    "lat": 0.4717
  },
  {
    "id": 303,
    "name": "Malea",
    "elevation": 2199,
    "province": "Sumatera Utara",
    "island": "Sumatera",
    "long": 99.76839685,
    "lat": 0.859979382
  },
  {
    "id": 304,
    "name": "Pangulubao",
    "elevation": 2215,
    "province": "Sumatera Utara",
    "island": "Sumatera",
    "long": 99.07922304,
    "lat": 2.58987386
  },
  {
    "id": 305,
    "name": "Pusuk Buhit",
    "elevation": 1982,
    "province": "Sumatera Utara",
    "island": "Sumatera",
    "long": 98.65467,
    "lat": 2.60109
  },
  {
    "id": 306,
    "name": "Sibayak (Pintau)",
    "elevation": 2212,
    "province": "Sumatera Utara",
    "island": "Sumatera",
    "long": 98.50061,
    "lat": 3.24736
  },
  {
    "id": 307,
    "name": "Sibuatan",
    "elevation": 2457,
    "province": "Sumatera Utara",
    "island": "Sumatera",
    "long": 98.42346,
    "lat": 2.91831
  },
  {
    "id": 308,
    "name": "Sinabung",
    "elevation": 2450,
    "province": "Sumatera Utara",
    "island": "Sumatera",
    "long": 98.39063,
    "lat": 3.17142
  },
  {
    "id": 309,
    "name": "Sorikmarapi",
    "elevation": 2145,
    "province": "Sumatera Utara",
    "island": "Sumatera",
    "long": 99.53929,
    "lat": 0.68603
  },
  {
    "id": 310,
    "name": "Lubuk Raya",
    "elevation": 1880,
    "province": "Sumatera Utara",
    "island": "Sumatra",
    "long": 99.210661,
    "lat": 1.477655
  }
]