[
    {
      "id": 1,
      "name": "Abong Abong",
      "elevation": 2985,
      "col": 1881,
      "prominence": 1104,
      "province": "Nanggroe Aceh Darussalam",
      "island": "Sumatera",
      "long": "96.7950219700000",
      "lat": "4.2416195770000"
    },
    {
      "id": 2,
      "name": "Agung",
      "elevation": 3031,
      "col": 0,
      "prominence": 3031,
      "province": "Bali",
      "island": "Bali",
      "long": "115.5036220000000",
      "lat": "-8.3406860000000"
    },
    {
      "id": 3,
      "name": "Ambang",
      "elevation": 1795,
      "col": 398,
      "prominence": 1397,
      "province": "Sulawesi Utara",
      "island": "Sulawesi",
      "long": "124.4159180000000",
      "lat": "0.7573760000000"
    },
    {
      "id": 4,
      "name": "Ambeso",
      "elevation": 1971,
      "col": 966,
      "prominence": 1005,
      "province": "Sulawesi Selatan",
      "island": "Sulawesi",
      "long": "119.8034200000000",
      "lat": "-3.2136800000000"
    },
    {
      "id": 5,
      "name": "Anak Krakatau",
      "elevation": 157,
      "col": 0,
      "prominence": 157,
      "province": "Lampung",
      "island": "Anak Krakatau",
      "long": "105.4234128700000",
      "lat": "-6.1011844700000"
    },
    {
      "id": 6,
      "name": "Angemuk",
      "elevation": 3949,
      "col": 2384,
      "prominence": 1565,
      "province": "Papua",
      "island": "New Guinea",
      "long": "138.5918440000000",
      "lat": "-3.5245490000000"
    },
    {
      "id": 7,
      "name": "Anjasmoro",
      "elevation": 2372,
      "col": 1731,
      "prominence": 641,
      "province": "Jawa Timur",
      "island": "Java",
      "long": "112.4789900000000",
      "lat": "-7.7675700000000"
    },
    {
      "id": 9,
      "name": "Antulai",
      "elevation": 1609,
      "col": 566,
      "prominence": 1043,
      "province": "Sabah",
      "island": "Borneo",
      "long": "116.3475000000000",
      "lat": "4.6767000000000"
    },
    {
      "id": 10,
      "name": "Apad Runan",
      "elevation": 2099,
      "col": 1126,
      "prominence": 973,
      "province": "Kalimantan Utara",
      "island": "Borneo",
      "long": "115.5871437000000",
      "lat": "3.4504227540000"
    },
    {
      "id": 11,
      "name": "Ara",
      "elevation": 824,
      "col": 0,
      "prominence": 824,
      "province": "Nusa Tenggara Timur",
      "island": "Komodo",
      "long": "119.4475089000000",
      "lat": "-8.5650970600000"
    },
    {
      "id": 12,
      "name": "Arfak (Mebo)",
      "elevation": 2955,
      "col": 180,
      "prominence": 2775,
      "province": "Papua Barat",
      "island": "New Guinea",
      "long": "133.9795550000000",
      "lat": "-1.1563260000000"
    },
    {
      "id": 13,
      "name": "Argopuro",
      "elevation": 3088,
      "col": 343,
      "prominence": 2745,
      "province": "Jawa Timur",
      "island": "Java",
      "long": "113.5664050000000",
      "lat": "-7.9643640000000"
    },
    {
      "id": 14,
      "name": "Arjuno",
      "elevation": 3339,
      "col": 528,
      "prominence": 2811,
      "province": "Jawa Timur",
      "island": "Java",
      "long": "112.5900101000000",
      "lat": "-7.7641296790000"
    },
    {
      "id": 15,
      "name": "Awu",
      "elevation": 1340,
      "col": 0,
      "prominence": 1340,
      "province": "Sulawesi Utara",
      "island": "Great Sangihe",
      "long": "125.4476848000000",
      "lat": "3.6883192620000"
    },
    {
      "id": 16,
      "name": "Balease (Tolangi)",
      "elevation": 3016,
      "col": 1429,
      "prominence": 1587,
      "province": "Sulawesi Selatan",
      "island": "Sulawesi",
      "long": "120.5419395000000",
      "lat": "-2.4056727420000"
    },
    {
      "id": 17,
      "name": "Baluran",
      "elevation": 1265,
      "col": 243,
      "prominence": 1022,
      "province": "Jawa Timur",
      "island": "Java",
      "long": "114.3629307000000",
      "lat": "-7.8456177490000"
    },
    {
      "id": 18,
      "name": "Banda Api",
      "elevation": 640,
      "col": 0,
      "prominence": 640,
      "province": "Maluku",
      "island": "Banda Api",
      "long": "129.8808342000000",
      "lat": "-4.5225091630000"
    },
    {
      "id": 19,
      "name": "Bandahara",
      "elevation": 3012,
      "col": 1370,
      "prominence": 1642,
      "province": "Nanggroe Aceh Darussalam",
      "island": "Sumatera",
      "long": "97.7816862000000",
      "lat": "3.7491744320000"
    },
    {
      "id": 20,
      "name": "Banjaran Dulit",
      "elevation": 1461,
      "col": 313,
      "prominence": 1148,
      "province": "Sarawak",
      "island": "Borneo",
      "long": "114.3200000000000",
      "lat": "3.1583000000000"
    },
    {
      "id": 21,
      "name": "Batakbual",
      "elevation": 1750,
      "col": 623,
      "prominence": 1127,
      "province": "Maluku",
      "island": "Buru",
      "long": "127.1481874000000",
      "lat": "-3.5141020780000"
    },
    {
      "id": 22,
      "name": "Batanta (Kalaikut)",
      "elevation": 1184,
      "col": 0,
      "prominence": 1184,
      "province": "Papua Barat",
      "island": "Batanta",
      "long": "130.6240310000000",
      "lat": "-0.8576360000000"
    },
    {
      "id": 23,
      "name": "Batikap",
      "elevation": 1580,
      "col": 1089,
      "prominence": 491,
      "province": "Kalimantan Tengah",
      "island": "Borneo",
      "long": "113.4284450000000",
      "lat": "0.2608230000000"
    },
    {
      "id": 24,
      "name": "Batu Daya",
      "elevation": 958,
      "col": 48,
      "prominence": 910,
      "province": "Kalimantan Barat",
      "island": "Borneo",
      "long": "110.3357330000000",
      "lat": "-1.0165000000000"
    },
    {
      "id": 25,
      "name": "Batu Jumak",
      "elevation": 2250,
      "col": 675,
      "prominence": 1575,
      "province": "Kalimantan Utara",
      "island": "Borneo",
      "long": "115.2726630000000",
      "lat": "1.8196090000000"
    },
    {
      "id": 26,
      "name": "Batu Lawi",
      "elevation": 2046,
      "col": 1273,
      "prominence": 773,
      "province": "Sarawak",
      "island": "Borneo",
      "long": "115.3868960000000",
      "lat": "3.8703190000000"
    },
    {
      "id": 27,
      "name": "Batu Putih",
      "elevation": 2130,
      "col": 1156,
      "prominence": 974,
      "province": "Peninsular Malaysia",
      "island": "Eurasia",
      "long": "101.4409900000000",
      "lat": "4.2222400000000"
    },
    {
      "id": 28,
      "name": "Batu Tara",
      "elevation": 748,
      "col": 0,
      "prominence": 748,
      "province": "Nusa Tenggara Timur",
      "island": "Komba",
      "long": "123.5852150000000",
      "lat": "-7.7907010000000"
    },
    {
      "id": 29,
      "name": "Batu Tiban",
      "elevation": 2050,
      "col": 919,
      "prominence": 1131,
      "province": "Kalimantan Utara",
      "island": "Borneo",
      "long": "114.6137977000000",
      "lat": "1.5772315470000"
    },
    {
      "id": 30,
      "name": "Batuayau",
      "elevation": 1642,
      "col": 605,
      "prominence": 1037,
      "province": "Kalimantan Timur",
      "island": "Borneo",
      "long": "114.8795608000000",
      "lat": "0.7454015450000"
    },
    {
      "id": 31,
      "name": "Batuensambang",
      "elevation": 1770,
      "col": 672,
      "prominence": 1098,
      "province": "Kalimantan Barat",
      "island": "Borneo",
      "long": "113.1088366000000",
      "lat": "0.1386498460000"
    },
    {
      "id": 32,
      "name": "Batui",
      "elevation": 1930,
      "col": 731,
      "prominence": 1199,
      "province": "Sulawesi Tengah",
      "island": "Sulawesi",
      "long": "122.0814350000000",
      "lat": "-1.3609620000000"
    },
    {
      "id": 33,
      "name": "Batukaru",
      "elevation": 2276,
      "col": 1188,
      "prominence": 1088,
      "province": "Bali",
      "island": "Bali",
      "long": "115.0884400000000",
      "lat": "-8.3348500000000"
    },
    {
      "id": 34,
      "name": "Batur",
      "elevation": 1717,
      "col": 1256,
      "prominence": 461,
      "province": "Bali",
      "island": "Bali",
      "long": "115.3769100000000",
      "lat": "-8.2371500000000"
    },
    {
      "id": 35,
      "name": "Batutenobong",
      "elevation": 1580,
      "col": 389,
      "prominence": 1191,
      "province": "Kalimantan Barat",
      "island": "Borneo",
      "long": "113.2027625000000",
      "lat": "0.4498700070000"
    },
    {
      "id": 36,
      "name": "Bawakaraeng",
      "elevation": 2840,
      "col": 2316,
      "prominence": 524,
      "province": "Sulawesi Selatan",
      "island": "Sulawesi",
      "long": "119.9446010000000",
      "lat": "-5.3166590000000"
    },
    {
      "id": 37,
      "name": "Bawang",
      "elevation": 1428,
      "col": 108,
      "prominence": 1320,
      "province": "Kalimantan Barat",
      "island": "Borneo",
      "long": "109.3854802000000",
      "lat": "0.9110936630000"
    },
    {
      "id": 38,
      "name": "Belayan",
      "elevation": 2195,
      "col": 787,
      "prominence": 1408,
      "province": "Kalimantan Timur",
      "island": "Borneo",
      "long": "115.9958000000000",
      "lat": "1.5258000000000"
    },
    {
      "id": 39,
      "name": "Belumut",
      "elevation": 1010,
      "col": 35,
      "prominence": 975,
      "province": "Peninsular Malaysia",
      "island": "Eurasia",
      "long": "103.5608000000000",
      "lat": "2.0425000000000"
    },
    {
      "id": 40,
      "name": "Benum",
      "elevation": 2107,
      "col": 157,
      "prominence": 1950,
      "province": "Peninsular Malaysia",
      "island": "Eurasia",
      "long": "102.0942000000000",
      "lat": "3.8233000000000"
    },
    {
      "id": 41,
      "name": "Berangin",
      "elevation": 1644,
      "col": 329,
      "prominence": 1315,
      "province": "Kalimantan Barat",
      "island": "Borneo",
      "long": "111.0675000000000",
      "lat": "-0.4967000000000"
    },
    {
      "id": 42,
      "name": "Beratus",
      "elevation": 1235,
      "col": 216,
      "prominence": 1019,
      "province": "Kalimantan Timur",
      "island": "Borneo",
      "long": "116.3362424000000",
      "lat": "-1.0211394630000"
    },
    {
      "id": 43,
      "name": "Beriun",
      "elevation": 1325,
      "col": 104,
      "prominence": 1221,
      "province": "Kalimantan Timur",
      "island": "Borneo",
      "long": "117.4678162000000",
      "lat": "1.3163673550000"
    },
    {
      "id": 44,
      "name": "Berumput (Kanyi)",
      "elevation": 1570,
      "col": 31,
      "prominence": 1539,
      "province": "Kalimantan Barat",
      "island": "Borneo",
      "long": "109.6686000000000",
      "lat": "1.7207500000000"
    },
    {
      "id": 45,
      "name": "Besar (Endau Rompin)",
      "elevation": 1036,
      "col": 50,
      "prominence": 986,
      "province": "Peninsular Malaysia",
      "island": "Eurasia",
      "long": "103.1475000000000",
      "lat": "2.5200000000000"
    },
    {
      "id": 46,
      "name": "Besar (Halau Halau)",
      "elevation": 1901,
      "col": 100,
      "prominence": 1801,
      "province": "Kalimantan Selatan",
      "island": "Borneo",
      "long": "115.6259860000000",
      "lat": "-2.7105450000000"
    },
    {
      "id": 47,
      "name": "Beturan",
      "elevation": 1577,
      "col": 208,
      "prominence": 1369,
      "province": "Kalimantan Barat",
      "island": "Borneo",
      "long": "112.4421040000000",
      "lat": "-0.0578522210000"
    },
    {
      "id": 48,
      "name": "Binaiya",
      "elevation": 3027,
      "col": 0,
      "prominence": 3027,
      "province": "Maluku",
      "island": "Seram",
      "long": "129.4546660000000",
      "lat": "-3.1735350000000"
    },
    {
      "id": 49,
      "name": "Bintang",
      "elevation": 1862,
      "col": 276,
      "prominence": 1566,
      "province": "Peninsular Malaysia",
      "island": "Eurasia",
      "long": "100.8667000000000",
      "lat": "5.4292000000000"
    },
    {
      "id": 50,
      "name": "Biwa",
      "elevation": 1321,
      "col": 120,
      "prominence": 1201,
      "province": "Kalimantan Barat",
      "island": "Borneo",
      "long": "110.8233000000000",
      "lat": "-0.6000000000000"
    },
    {
      "id": 51,
      "name": "Boliohutu (Huido Ileile)",
      "elevation": 2072,
      "col": 845,
      "prominence": 1227,
      "province": "Gorontalo",
      "island": "Sulawesi",
      "long": "122.5068553000000",
      "lat": "0.8863759470000"
    },
    {
      "id": 52,
      "name": "Bombalai Hill",
      "elevation": 536,
      "col": 324,
      "prominence": 212,
      "province": "Sabah",
      "island": "Borneo",
      "long": "117.8808000000000",
      "lat": "4.3858000000000"
    },
    {
      "id": 53,
      "name": "Bongkok",
      "elevation": 985,
      "col": 268,
      "prominence": 717,
      "province": "Jawa Barat",
      "island": "Java",
      "long": "107.3373600000000",
      "lat": "-6.6016390000000"
    },
    {
      "id": 54,
      "name": "Bonsupiori",
      "elevation": 1034,
      "col": 0,
      "prominence": 1034,
      "province": "Papua",
      "island": "Supiori",
      "long": "135.6056090000000",
      "lat": "-0.8068190000000"
    },
    {
      "id": 55,
      "name": "Bromo (Pananjakan)",
      "elevation": 2782,
      "col": 2196,
      "prominence": 586,
      "province": "Jawa Timur",
      "island": "Java",
      "long": "112.9521129000000",
      "lat": "-7.9037377650000"
    },
    {
      "id": 56,
      "name": "Bubu",
      "elevation": 1657,
      "col": 163,
      "prominence": 1494,
      "province": "Peninsular Malaysia",
      "island": "Eurasia",
      "long": "100.8072400000000",
      "lat": "4.6820700000000"
    },
    {
      "id": 57,
      "name": "Bujang Melaka",
      "elevation": 1234,
      "col": 151,
      "prominence": 1083,
      "province": "Peninsular Malaysia",
      "island": "Eurasia",
      "long": "101.2017000000000",
      "lat": "4.3333000000000"
    },
    {
      "id": 58,
      "name": "Bukiri Kalongan",
      "elevation": 786,
      "col": 0,
      "prominence": 786,
      "province": "Sulawesi Utara",
      "island": "Thulandang",
      "long": "125.4391806000000",
      "lat": "2.3450144220000"
    },
    {
      "id": 59,
      "name": "Bukit Batu",
      "elevation": 2040,
      "col": 466,
      "prominence": 1574,
      "province": "Sarawak (Malaysia)",
      "island": "Borneo",
      "long": "113.7186987000000",
      "lat": "2.2504763320000"
    },
    {
      "id": 60,
      "name": "Bukit Buru",
      "elevation": 1322,
      "col": 115,
      "prominence": 1207,
      "province": "Papua",
      "island": "New Guinea",
      "long": "134.9308395000000",
      "lat": "-4.2258055160000"
    },
    {
      "id": 61,
      "name": "Bukit Jempol",
      "elevation": 670,
      "col": 270,
      "prominence": 400,
      "province": "Sumatera Selatan",
      "island": "Sumatera",
      "long": "103.6710230000000",
      "lat": "-3.8115680000000"
    },
    {
      "id": 62,
      "name": "Bukit Meliat",
      "elevation": 1593,
      "col": 476,
      "prominence": 1117,
      "province": "Sabah",
      "island": "Borneo",
      "long": "116.9525000000000",
      "lat": "4.4142000000000"
    },
    {
      "id": 63,
      "name": "Bukit Raya",
      "elevation": 2300,
      "col": 283,
      "prominence": 2017,
      "province": "Kalimantan Tengah",
      "island": "Borneo",
      "long": "112.6888900000000",
      "lat": "-0.6598500000000"
    },
    {
      "id": 64,
      "name": "Bukit Raya",
      "elevation": 1200,
      "col": 203,
      "prominence": 997,
      "province": "Kalimantan Barat",
      "island": "Borneo",
      "long": "111.0817000000000",
      "lat": "-1.5333000000000"
    },
    {
      "id": 65,
      "name": "Bukittunggul",
      "elevation": 2215,
      "col": 864,
      "prominence": 1351,
      "province": "Jawa Barat",
      "island": "Java",
      "long": "107.7263800000000",
      "lat": "-6.8111000000000"
    },
    {
      "id": 66,
      "name": "Buku Rica (Meng)",
      "elevation": 1155,
      "col": 23,
      "prominence": 1132,
      "province": "Maluku Utara",
      "island": "Bacan",
      "long": "127.6118635000000",
      "lat": "-0.4921568570000"
    },
    {
      "id": 67,
      "name": "Buku Sibela",
      "elevation": 2111,
      "col": 0,
      "prominence": 2111,
      "province": "Maluku Utara",
      "island": "Bacan",
      "long": "127.5243830000000",
      "lat": "-0.7370300000000"
    },
    {
      "id": 68,
      "name": "Bulu Nti",
      "elevation": 2324,
      "col": 1322,
      "prominence": 1002,
      "province": "Sulawesi Tengah",
      "island": "Sulawesi",
      "long": "119.8007300000000",
      "lat": "-1.0867500000000"
    },
    {
      "id": 69,
      "name": "Buntu Puang",
      "elevation": 1925,
      "col": 1073,
      "prominence": 852,
      "province": "Sulawesi Selatan",
      "island": "Sulawesi",
      "long": "120.0849928000000",
      "lat": "-3.0076849190000"
    },
    {
      "id": 70,
      "name": "Buntung",
      "elevation": 1042,
      "col": 415,
      "prominence": 627,
      "province": "Kalimantan Timur",
      "island": "Borneo",
      "long": "117.4115570000000",
      "lat": "1.6039490000000"
    },
    {
      "id": 71,
      "name": "Bur ni Geureudong",
      "elevation": 2885,
      "col": 1334,
      "prominence": 1551,
      "province": "Nanggroe Aceh Darussalam",
      "island": "Sumatera",
      "long": "96.8163120000000",
      "lat": "4.8105780000000"
    },
    {
      "id": 72,
      "name": "Bur ni Kelieten",
      "elevation": 2635,
      "col": 1542,
      "prominence": 1093,
      "province": "Nanggroe Aceh Darussalam",
      "island": "Sumatera",
      "long": "96.9575800000000",
      "lat": "4.5521800000000"
    },
    {
      "id": 73,
      "name": "Burangrang",
      "elevation": 2064,
      "col": 1639,
      "prominence": 425,
      "province": "Jawa Barat",
      "island": "Java",
      "long": "107.5556600000000",
      "lat": "-6.7741840000000"
    },
    {
      "id": 74,
      "name": "Buringayok",
      "elevation": 1202,
      "col": 215,
      "prominence": 987,
      "province": "Kalimantan Timur",
      "island": "Borneo",
      "long": "115.3161924000000",
      "lat": "-0.0029366990000"
    },
    {
      "id": 75,
      "name": "Butak",
      "elevation": 2868,
      "col": 1195,
      "prominence": 1673,
      "province": "Jawa Timur",
      "island": "Java",
      "long": "112.4651300000000",
      "lat": "-7.9552500000000"
    },
    {
      "id": 76,
      "name": "Buttu Tinaungan",
      "elevation": 1681,
      "col": 651,
      "prominence": 1030,
      "province": "Sulawesi Barat",
      "island": "Sulawesi",
      "long": "119.0458000000000",
      "lat": "-2.7367000000000"
    },
    {
      "id": 77,
      "name": "Buyu Lumut",
      "elevation": 2403,
      "col": 647,
      "prominence": 1756,
      "province": "Sulawesi Tengah",
      "island": "Sulawesi",
      "long": "121.8033832000000",
      "lat": "-1.2036336840000"
    },
    {
      "id": 78,
      "name": "Cabalaki",
      "elevation": 2459,
      "col": 1445,
      "prominence": 1014,
      "province": "Timor Leste",
      "island": "Timor",
      "long": "125.5983000000000",
      "lat": "-8.9525000000000"
    },
    {
      "id": 79,
      "name": "Cabang",
      "elevation": 1030,
      "col": 0,
      "prominence": 1030,
      "province": "Kalimantan Barat",
      "island": "Karimata",
      "long": "108.9037595000000",
      "lat": "-1.6034026290000"
    },
    {
      "id": 80,
      "name": "Chamah",
      "elevation": 2171,
      "col": 1130,
      "prominence": 1041,
      "province": "Peninsular Malaysia",
      "island": "Eurasia",
      "long": "101.5742000000000",
      "lat": "5.2275000000000"
    },
    {
      "id": 81,
      "name": "Chemerong Peak",
      "elevation": 1571,
      "col": 237,
      "prominence": 1334,
      "province": "Peninsular Malaysia",
      "island": "Eurasia",
      "long": "102.8514200000000",
      "lat": "4.7304640000000"
    },
    {
      "id": 82,
      "name": "Cikuray",
      "elevation": 2821,
      "col": 716,
      "prominence": 2105,
      "province": "Jawa Barat",
      "island": "Java",
      "long": "107.8599492000000",
      "lat": "-7.3225773010000"
    },
    {
      "id": 83,
      "name": "Ciremai",
      "elevation": 3078,
      "col": 286,
      "prominence": 2792,
      "province": "Jawa Barat",
      "island": "Java",
      "long": "108.4069220000000",
      "lat": "-6.8929472160000"
    },
    {
      "id": 84,
      "name": "Colo",
      "elevation": 435,
      "col": 0,
      "prominence": 435,
      "province": "Sulawesi Tengah",
      "island": "Una-una",
      "long": "121.6111080000000",
      "lat": "-0.1778000000000"
    },
    {
      "id": 85,
      "name": "Curunumbeng",
      "elevation": 1992,
      "col": 927,
      "prominence": 1065,
      "province": "Nusa Tenggara Timur",
      "island": "Flores",
      "long": "120.3271225000000",
      "lat": "-8.7172482280000"
    },
    {
      "id": 86,
      "name": "Cyclops",
      "elevation": 2000,
      "col": 141,
      "prominence": 1859,
      "province": "Papua",
      "island": "New Guinea",
      "long": "140.5096190000000",
      "lat": "-2.5083270000000"
    },
    {
      "id": 87,
      "name": "Daik",
      "elevation": 1165,
      "col": 0,
      "prominence": 1165,
      "province": "Kepulauan Riau",
      "island": "Lingga",
      "long": "104.5501220000000",
      "lat": "-0.1958614570000"
    },
    {
      "id": 88,
      "name": "Dapi",
      "elevation": 1694,
      "col": 527,
      "prominence": 1167,
      "province": "Gorontalo",
      "island": "Sulawesi",
      "long": "122.0323887000000",
      "lat": "0.7000359560000"
    },
    {
      "id": 89,
      "name": "Daun",
      "elevation": 2493,
      "col": 952,
      "prominence": 1541,
      "province": "Bengkulu",
      "island": "Sumatera",
      "long": "102.3425000000000",
      "lat": "-3.3919890000000"
    },
    {
      "id": 90,
      "name": "Dempo",
      "elevation": 3173,
      "col": 723,
      "prominence": 2450,
      "province": "Sumatera Selatan",
      "island": "Sumatera",
      "long": "103.1279950000000",
      "lat": "-4.0154770000000"
    },
    {
      "id": 91,
      "name": "Deyjay",
      "elevation": 3340,
      "col": 1817,
      "prominence": 1523,
      "province": "Papua",
      "island": "New Guinea",
      "long": "136.1950571000000",
      "lat": "-3.9691746730000"
    },
    {
      "id": 92,
      "name": "Dieng (Prau)",
      "elevation": 2600,
      "col": 1662,
      "prominence": 938,
      "province": "Jawa Tengah",
      "island": "Java",
      "long": "109.9321700000000",
      "lat": "-7.1971600000000"
    },
    {
      "id": 93,
      "name": "Dola Koyakoya",
      "elevation": 1821,
      "col": 0,
      "prominence": 1821,
      "province": "Nusa Tenggara Timur",
      "island": "Alor",
      "long": "125.0206000000000",
      "lat": "-8.2212000000000"
    },
    {
      "id": 94,
      "name": "Dolok Gongonan",
      "elevation": 1440,
      "col": 389,
      "prominence": 1051,
      "province": "Sumatera Utara",
      "island": "Sumatera",
      "long": "99.3300537400000",
      "lat": "1.1529303170000"
    },
    {
      "id": 95,
      "name": "Dolok Nabibong",
      "elevation": 2015,
      "col": 1005,
      "prominence": 1010,
      "province": "Sumatera Utara",
      "island": "Sumatera",
      "long": "99.3858000000000",
      "lat": "1.7517000000000"
    },
    {
      "id": 96,
      "name": "Dora Ora",
      "elevation": 735,
      "col": 0,
      "prominence": 735,
      "province": "Nusa Tenggara Timur",
      "island": "Rinca",
      "long": "119.6815970000000",
      "lat": "-8.7650440000000"
    },
    {
      "id": 97,
      "name": "Doro Dindi",
      "elevation": 1618,
      "col": 114,
      "prominence": 1504,
      "province": "Nusa Tenggara Barat",
      "island": "Sumbawa",
      "long": "118.5424000000000",
      "lat": "-8.3938600000000"
    },
    {
      "id": 98,
      "name": "Doro Pundunence",
      "elevation": 1433,
      "col": 144,
      "prominence": 1289,
      "province": "Nusa Tenggara Barat",
      "island": "Sumbawa",
      "long": "118.9241941000000",
      "lat": "-8.4824517040000"
    },
    {
      "id": 99,
      "name": "Dua Saudara",
      "elevation": 1351,
      "col": 402,
      "prominence": 949,
      "province": "Sulawesi Utara",
      "island": "Sulawesi",
      "long": "125.1583130000000",
      "lat": "1.4853780000000"
    },
    {
      "id": 100,
      "name": "Dukono",
      "elevation": 1259,
      "col": 903,
      "prominence": 356,
      "province": "Maluku Utara",
      "island": "Halmahera",
      "long": "127.8941435000000",
      "lat": "1.6932934210000"
    },
    {
      "id": 101,
      "name": "Ebulobo",
      "elevation": 2137,
      "col": 821,
      "prominence": 1316,
      "province": "Nusa Tenggara Timur",
      "island": "Flores",
      "long": "121.1905212000000",
      "lat": "-8.8171169000000"
    },
    {
      "id": 102,
      "name": "Egon",
      "elevation": 1708,
      "col": 255,
      "prominence": 1453,
      "province": "Nusa Tenggara Timur",
      "island": "Flores",
      "long": "122.4550254000000",
      "lat": "-8.6758680270000"
    },
    {
      "id": 103,
      "name": "Fak Fak Mountains",
      "elevation": 1490,
      "col": 56,
      "prominence": 1434,
      "province": "Papua Barat",
      "island": "New Guinea",
      "long": "132.5517380000000",
      "lat": "-2.9633576630000"
    },
    {
      "id": 104,
      "name": "Fatu Timau",
      "elevation": 1774,
      "col": 631,
      "prominence": 1143,
      "province": "Nusa Tenggara Timur",
      "island": "Timor",
      "long": "123.9399900000000",
      "lat": "-9.5806100000000"
    },
    {
      "id": 105,
      "name": "Fudi (Gnowo)",
      "elevation": 1663,
      "col": 337,
      "prominence": 1326,
      "province": "Papua Barat",
      "island": "New Guinea",
      "long": "133.8641797000000",
      "lat": "-3.3616668550000"
    },
    {
      "id": 106,
      "name": "Gading (Perigi)",
      "elevation": 892,
      "col": 31,
      "prominence": 861,
      "province": "Sarawak",
      "island": "Borneo",
      "long": "109.8234860000000",
      "lat": "1.7186710000000"
    },
    {
      "id": 107,
      "name": "Galang",
      "elevation": 2253,
      "col": 459,
      "prominence": 1794,
      "province": "Sulawesi Tengah",
      "island": "Sulawesi",
      "long": "120.9344902000000",
      "lat": "1.0625637740000"
    },
    {
      "id": 108,
      "name": "Galunggung (Beuticanar)",
      "elevation": 2240,
      "col": 978,
      "prominence": 1262,
      "province": "Jawa Barat",
      "island": "Java",
      "long": "108.0690870000000",
      "lat": "-7.2344570000000"
    },
    {
      "id": 109,
      "name": "Gamalama",
      "elevation": 1715,
      "col": 0,
      "prominence": 1715,
      "province": "Maluku Utara",
      "island": "Ternate",
      "long": "127.3330407000000",
      "lat": "0.8090766560000"
    },
    {
      "id": 110,
      "name": "Gamkonora",
      "elevation": 1571,
      "col": 0,
      "prominence": 1571,
      "province": "Maluku Utara",
      "island": "Halmahera",
      "long": "127.5341070000000",
      "lat": "1.3783540000000"
    },
    {
      "id": 111,
      "name": "Gandangdewata",
      "elevation": 3074,
      "col": 934,
      "prominence": 2140,
      "province": "Sulawesi Barat",
      "island": "Sulawesi",
      "long": "119.3685180000000",
      "lat": "-2.7480240000000"
    },
    {
      "id": 112,
      "name": "Gauttier",
      "elevation": 2230,
      "col": 223,
      "prominence": 2007,
      "province": "Papua",
      "island": "New Guinea",
      "long": "138.6742000000000",
      "lat": "-2.5708000000000"
    },
    {
      "id": 113,
      "name": "Gawalise",
      "elevation": 2029,
      "col": 1310,
      "prominence": 719,
      "province": "Sulawesi Tengah",
      "island": "Sulawesi",
      "long": "119.7694990000000",
      "lat": "-0.9107060000000"
    },
    {
      "id": 114,
      "name": "Gecilia (Solita Batu)",
      "elevation": 1473,
      "col": 471,
      "prominence": 1002,
      "province": "Maluku",
      "island": "Seram",
      "long": "128.6326295000000",
      "lat": "-3.0565330480000"
    },
    {
      "id": 115,
      "name": "Gedang",
      "elevation": 2448,
      "col": 1318,
      "prominence": 1130,
      "province": "Bengkulu",
      "island": "Sumatera",
      "long": "101.9195215000000",
      "lat": "-2.7361842240000"
    },
    {
      "id": 116,
      "name": "Gumai",
      "elevation": 1796,
      "col": 739,
      "prominence": 1057,
      "province": "Sumatera Selatan",
      "island": "Sumatera",
      "long": "103.2783620000000",
      "lat": "-3.8836810000000"
    },
    {
      "id": 117,
      "name": "Guntur (Masigit)",
      "elevation": 2249,
      "col": 1491,
      "prominence": 758,
      "province": "Jawa Barat",
      "island": "Java",
      "long": "107.8412575000000",
      "lat": "-7.1426395400000"
    },
    {
      "id": 118,
      "name": "Gunungapi Wetar",
      "elevation": 282,
      "col": 0,
      "prominence": 282,
      "province": "Maluku",
      "island": "Gunungapi Wetar",
      "long": "126.6606870000000",
      "lat": "-6.6351500000000"
    },
    {
      "id": 119,
      "name": "Halimun (North)",
      "elevation": 1929,
      "col": 991,
      "prominence": 938,
      "province": "Banten",
      "island": "Java",
      "long": "106.4516538000000",
      "lat": "-6.7108304660000"
    },
    {
      "id": 120,
      "name": "Harun",
      "elevation": 2169,
      "col": 1093,
      "prominence": 1076,
      "province": "Kalimantan Utara",
      "island": "Borneo",
      "long": "115.8071164000000",
      "lat": "4.1255847440000"
    },
    {
      "id": 121,
      "name": "Hijau",
      "elevation": 2274,
      "col": 904,
      "prominence": 1370,
      "province": "Sumatera Barat",
      "island": "Sumatera",
      "long": "100.2417000000000",
      "lat": "0.1425000000000"
    },
    {
      "id": 122,
      "name": "Hulumasen",
      "elevation": 2315,
      "col": 593,
      "prominence": 1722,
      "province": "Nanggroe Aceh Darussalam",
      "island": "Sumatera",
      "long": "95.6333593300000",
      "lat": "5.0440794820000"
    },
    {
      "id": 123,
      "name": "Ibu",
      "elevation": 1377,
      "col": 287,
      "prominence": 1090,
      "province": "Maluku Utara",
      "island": "Halmahera",
      "long": "127.6304989000000",
      "lat": "1.4906720730000"
    },
    {
      "id": 124,
      "name": "Ijen (Merapi)",
      "elevation": 2803,
      "col": 1585,
      "prominence": 1218,
      "province": "Jawa Timur",
      "island": "Java",
      "long": "114.2619770000000",
      "lat": "-8.0626830000000"
    },
    {
      "id": 125,
      "name": "Ili Boleng",
      "elevation": 1658,
      "col": 0,
      "prominence": 1658,
      "province": "Nusa Tenggara Timur",
      "island": "Adonara",
      "long": "123.2562580000000",
      "lat": "-8.3455480000000"
    },
    {
      "id": 126,
      "name": "Ili Labalekang",
      "elevation": 1621,
      "col": 0,
      "prominence": 1621,
      "province": "Nusa Tenggara Timur",
      "island": "Lembata",
      "long": "123.3843200000000",
      "lat": "-8.5445400000000"
    },
    {
      "id": 127,
      "name": "Ili Mandiri",
      "elevation": 1484,
      "col": 83,
      "prominence": 1401,
      "province": "Nusa Tenggara Timur",
      "island": "Flores",
      "long": "122.9677965000000",
      "lat": "-8.3142848200000"
    },
    {
      "id": 128,
      "name": "Ili Uyelewun",
      "elevation": 1523,
      "col": 277,
      "prominence": 1246,
      "province": "Nusa Tenggara Timur",
      "island": "Lembata",
      "long": "123.7757767000000",
      "lat": "-8.2135538500000"
    },
    {
      "id": 129,
      "name": "Ili Werung",
      "elevation": 1030,
      "col": 679,
      "prominence": 351,
      "province": "Nusa Tenggara Timur",
      "island": "Lembata",
      "long": "123.5633570000000",
      "lat": "-8.5199140000000"
    },
    {
      "id": 130,
      "name": "Ili Wukoh",
      "elevation": 1431,
      "col": 385,
      "prominence": 1046,
      "province": "Nusa Tenggara Timur",
      "island": "Flores",
      "long": "122.6550254000000",
      "lat": "-8.5709030800000"
    },
    {
      "id": 131,
      "name": "Imbak",
      "elevation": 1490,
      "col": 322,
      "prominence": 1168,
      "province": "Sabah",
      "island": "Borneo",
      "long": "117.2067000000000",
      "lat": "5.0700000000000"
    },
    {
      "id": 132,
      "name": "Inerie",
      "elevation": 2227,
      "col": 602,
      "prominence": 1625,
      "province": "Nusa Tenggara Timur",
      "island": "Flores",
      "long": "120.9544200000000",
      "lat": "-8.8780700000000"
    },
    {
      "id": 133,
      "name": "Irau",
      "elevation": 2500,
      "col": 600,
      "prominence": 1900,
      "province": "Papua Barat",
      "island": "New Guinea",
      "long": "132.8891583000000",
      "lat": "-0.6616782840000"
    },
    {
      "id": 134,
      "name": "Irau",
      "elevation": 2110,
      "col": 1442,
      "prominence": 668,
      "province": "Peninsular Malaysia",
      "island": "Eurasia",
      "long": "101.3650000000000",
      "lat": "4.5292000000000"
    },
    {
      "id": 135,
      "name": "Iya",
      "elevation": 657,
      "col": 46,
      "prominence": 611,
      "province": "Nusa Tenggara Timur",
      "island": "Flores",
      "long": "121.6411930000000",
      "lat": "-8.8912790000000"
    },
    {
      "id": 136,
      "name": "Jailolo",
      "elevation": 1030,
      "col": 25,
      "prominence": 1005,
      "province": "Maluku Utara",
      "island": "Halmahera",
      "long": "127.4392848000000",
      "lat": "1.0803761180000"
    },
    {
      "id": 137,
      "name": "Jantan",
      "elevation": 439,
      "col": 0,
      "prominence": 439,
      "province": "Kepulauan Riau",
      "island": "Karimun",
      "long": "103.3574900000000",
      "lat": "1.0982300000000"
    },
    {
      "id": 138,
      "name": "Jerai",
      "elevation": 1217,
      "col": 33,
      "prominence": 1184,
      "province": "Peninsular Malaysia",
      "island": "Eurasia",
      "long": "100.4342000000000",
      "lat": "5.7867000000000"
    },
    {
      "id": 139,
      "name": "Jimliek",
      "elevation": 3151,
      "col": 2044,
      "prominence": 1107,
      "province": "Papua",
      "island": "New Guinea",
      "long": "138.8259094000000",
      "lat": "-3.8026676920000"
    },
    {
      "id": 140,
      "name": "Jumbul Ambera",
      "elevation": 3785,
      "col": 2402,
      "prominence": 1383,
      "province": "Papua",
      "island": "New Guinea",
      "long": "139.0032526000000",
      "lat": "-3.8675421890000"
    },
    {
      "id": 141,
      "name": "Kaba",
      "elevation": 1952,
      "col": 1095,
      "prominence": 857,
      "province": "Bengkulu",
      "island": "Sumatra",
      "long": "102.6160000000000",
      "lat": "-3.5230000000000"
    },
    {
      "id": 142,
      "name": "Kabawo Lambohogo",
      "elevation": 1063,
      "col": 0,
      "prominence": 1063,
      "province": "Sulawesi Tenggara",
      "island": "Butung",
      "long": "122.9698980000000",
      "lat": "-4.4866350520000"
    },
    {
      "id": 143,
      "name": "Kahung",
      "elevation": 1285,
      "col": 231,
      "prominence": 1054,
      "province": "Kalimantan Selatan",
      "island": "Borneo",
      "long": "115.0306900000000",
      "lat": "-3.6903500000000"
    },
    {
      "id": 144,
      "name": "Kajang",
      "elevation": 1038,
      "col": 0,
      "prominence": 1038,
      "province": "Peninsular Malaysia",
      "island": "Tioman",
      "long": "104.1542000000000",
      "lat": "2.7700000000000"
    },
    {
      "id": 145,
      "name": "Kalulong",
      "elevation": 1600,
      "col": 451,
      "prominence": 1149,
      "province": "Sarawak",
      "island": "Borneo",
      "long": "114.6708000000000",
      "lat": "3.2200000000000"
    },
    {
      "id": 146,
      "name": "Kambuno (Lantangunta)",
      "elevation": 2855,
      "col": 1656,
      "prominence": 1199,
      "province": "Sulawesi Selatan",
      "island": "Sulawesi",
      "long": "120.0710882000000",
      "lat": "-2.3546844540000"
    },
    {
      "id": 147,
      "name": "Kana",
      "elevation": 1073,
      "col": 54,
      "prominence": 1019,
      "province": "Sarawak",
      "island": "Borneo",
      "long": "112.8567000000000",
      "lat": "2.6667000000000"
    },
    {
      "id": 148,
      "name": "Kanamu",
      "elevation": 1578,
      "col": 298,
      "prominence": 1280,
      "province": "Kalimantan Tengah",
      "island": "Borneo",
      "long": "113.1468670000000",
      "lat": "-0.7307060000000"
    },
    {
      "id": 149,
      "name": "Kandela",
      "elevation": 2870,
      "col": 620,
      "prominence": 2250,
      "province": "Sulawesi Tengah",
      "island": "Sulawesi",
      "long": "121.5429210000000",
      "lat": "-1.2991380000000"
    },
    {
      "id": 150,
      "name": "Kapalatmada",
      "elevation": 2700,
      "col": 0,
      "prominence": 2700,
      "province": "Maluku",
      "island": "Buru",
      "long": "126.2198930000000",
      "lat": "-3.3006470000000"
    },
    {
      "id": 151,
      "name": "Karang",
      "elevation": 1778,
      "col": 73,
      "prominence": 1705,
      "province": "Banten",
      "island": "Java",
      "long": "106.0491100000000",
      "lat": "-6.2686100000000"
    },
    {
      "id": 152,
      "name": "Karangetang",
      "elevation": 1827,
      "col": 0,
      "prominence": 1827,
      "province": "Sulawesi Utara",
      "island": "Siau",
      "long": "125.4070813000000",
      "lat": "2.7808786610000"
    },
    {
      "id": 153,
      "name": "Katopasa",
      "elevation": 2825,
      "col": 2035,
      "prominence": 790,
      "province": "Sulawesi Tengah",
      "island": "Sulawesi",
      "long": "121.4263960000000",
      "lat": "-1.2401040000000"
    },
    {
      "id": 154,
      "name": "Kehuma",
      "elevation": 1210,
      "col": 108,
      "prominence": 1102,
      "province": "Kalimantan Barat",
      "island": "Borneo",
      "long": "111.3383000000000",
      "lat": "0.9350000000000"
    },
    {
      "id": 155,
      "name": "Kelam",
      "elevation": 940,
      "col": 36,
      "prominence": 904,
      "province": "Kalimantan Barat",
      "island": "Borneo",
      "long": "111.6526020000000",
      "lat": "0.0755780000000"
    },
    {
      "id": 156,
      "name": "Kelembit",
      "elevation": 1890,
      "col": 688,
      "prominence": 1202,
      "province": "Kalimantan Utara",
      "island": "Borneo",
      "long": "115.9179416000000",
      "lat": "2.8604842300000"
    },
    {
      "id": 157,
      "name": "Keli Lepembusu",
      "elevation": 1754,
      "col": 504,
      "prominence": 1250,
      "province": "Nusa Tenggara Timur",
      "island": "Flores",
      "long": "121.8110660000000",
      "lat": "-8.6727330000000"
    },
    {
      "id": 158,
      "name": "Kelimutu (Inspiration Point)",
      "elevation": 1647,
      "col": 1599,
      "prominence": 48,
      "province": "Nusa Tenggara Timur",
      "island": "Flores",
      "long": "121.8123036000000",
      "lat": "-8.7643611200000"
    },
    {
      "id": 159,
      "name": "Kelud",
      "elevation": 1724,
      "col": 786,
      "prominence": 938,
      "province": "Jawa Timur",
      "island": "Java",
      "long": "112.3139270000000",
      "lat": "-7.9347700000000"
    },
    {
      "id": 160,
      "name": "Kemiri",
      "elevation": 3317,
      "col": 2466,
      "prominence": 851,
      "province": "Nanggroe Aceh Darussalam",
      "island": "Sumatra",
      "long": "97.4790520000000",
      "lat": "3.7477300000000"
    },
    {
      "id": 161,
      "name": "Kenepai",
      "elevation": 1159,
      "col": 96,
      "prominence": 1063,
      "province": "Kalimantan Barat",
      "island": "Borneo",
      "long": "111.7175000000000",
      "lat": "0.7100000000000"
    },
    {
      "id": 162,
      "name": "Kerenceng",
      "elevation": 1742,
      "col": 879,
      "prominence": 863,
      "province": "Jawa Barat",
      "island": "Java",
      "long": "107.8818800000000",
      "lat": "-6.9340700000000"
    },
    {
      "id": 163,
      "name": "Kerihun",
      "elevation": 2005,
      "col": 865,
      "prominence": 1140,
      "province": "Kalimantan Barat",
      "island": "Borneo",
      "long": "113.8895475000000",
      "lat": "1.0353959700000"
    },
    {
      "id": 164,
      "name": "Kerinci",
      "elevation": 3805,
      "col": 0,
      "prominence": 3805,
      "province": "Jambi",
      "island": "Sumatera",
      "long": "101.2642252000000",
      "lat": "-1.6966219910000"
    },
    {
      "id": 165,
      "name": "Kie Besi (Mailoa)",
      "elevation": 1357,
      "col": 0,
      "prominence": 1357,
      "province": "Maluku Utara",
      "island": "Makian",
      "long": "127.3911111000000",
      "lat": "0.3188588930000"
    },
    {
      "id": 166,
      "name": "Kiematubu",
      "elevation": 1750,
      "col": 0,
      "prominence": 1750,
      "province": "Maluku Utara",
      "island": "Tidore",
      "long": "127.4029570000000",
      "lat": "0.6620260000000"
    },
    {
      "id": 167,
      "name": "Kinabalu (Low's Peak)",
      "elevation": 4095,
      "col": 0,
      "prominence": 4095,
      "province": "Sabah (Malaysia)",
      "island": "Borneo",
      "long": "116.5587030000000",
      "lat": "6.0750750000000"
    },
    {
      "id": 168,
      "name": "Klabat",
      "elevation": 1990,
      "col": 143,
      "prominence": 1847,
      "province": "Sulawesi Utara",
      "island": "Sulawesi",
      "long": "125.0312580000000",
      "lat": "1.4533440000000"
    },
    {
      "id": 169,
      "name": "Kobowre",
      "elevation": 3750,
      "col": 1535,
      "prominence": 2215,
      "province": "Papua",
      "island": "New Guinea",
      "long": "135.8708000000000",
      "lat": "-3.8708000000000"
    },
    {
      "id": 170,
      "name": "Kongpas",
      "elevation": 1516,
      "col": 377,
      "prominence": 1139,
      "province": "Kalimantan Timur",
      "island": "Borneo",
      "long": "116.6325000000000",
      "lat": "2.0533000000000"
    },
    {
      "id": 171,
      "name": "Korbu",
      "elevation": 2183,
      "col": 156,
      "prominence": 1993,
      "province": "Peninsular Malaysia",
      "island": "Eurasia",
      "long": "101.2975300000000",
      "lat": "4.6898000000000"
    },
    {
      "id": 172,
      "name": "Kujat",
      "elevation": 2024,
      "col": 729,
      "prominence": 1295,
      "province": "Kalimantan Utara",
      "island": "Borneo",
      "long": "116.4938138000000",
      "lat": "2.4829477050000"
    },
    {
      "id": 173,
      "name": "Kujau",
      "elevation": 1308,
      "col": 207,
      "prominence": 1101,
      "province": "Kalimantan Barat",
      "island": "Borneo",
      "long": "111.2667000000000",
      "lat": "-0.2258000000000"
    },
    {
      "id": 174,
      "name": "Kulabu",
      "elevation": 2173,
      "col": 807,
      "prominence": 1366,
      "province": "Sumatera Utara",
      "island": "Sumatera",
      "long": "99.8975000000000",
      "lat": "0.4717000000000"
    },
    {
      "id": 175,
      "name": "Kulat North",
      "elevation": 849,
      "col": 376,
      "prominence": 473,
      "province": "Kalimantan Timur",
      "island": "Borneo",
      "long": "117.3275440000000",
      "lat": "1.3718030000000"
    },
    {
      "id": 176,
      "name": "Kulat South",
      "elevation": 914,
      "col": 277,
      "prominence": 637,
      "province": "Kalimantan Timur",
      "island": "Borneo",
      "long": "117.2845230000000",
      "lat": "1.2514540000000"
    },
    {
      "id": 177,
      "name": "Kumawa",
      "elevation": 1680,
      "col": 44,
      "prominence": 1636,
      "province": "Papua Barat",
      "island": "New Guinea",
      "long": "133.0107850000000",
      "lat": "-3.9152280000000"
    },
    {
      "id": 178,
      "name": "Kundas",
      "elevation": 1252,
      "col": 127,
      "prominence": 1125,
      "province": "Kalimantan Timur",
      "island": "Borneo",
      "long": "116.8883000000000",
      "lat": "2.4758000000000"
    },
    {
      "id": 179,
      "name": "Kurik",
      "elevation": 3085,
      "col": 1274,
      "prominence": 1811,
      "province": "Nanggroe Aceh Darussalam",
      "island": "Sumatera",
      "long": "97.4205480000000",
      "lat": "4.2516640000000"
    },
    {
      "id": 180,
      "name": "Lalaitu",
      "elevation": 1412,
      "col": 0,
      "prominence": 1412,
      "province": "Maluku",
      "island": "Wetar",
      "long": "126.5133083000000",
      "lat": "-7.6841565840000"
    },
    {
      "id": 181,
      "name": "Lamongan (Tarub)",
      "elevation": 1667,
      "col": 559,
      "prominence": 1108,
      "province": "Jawa Timur",
      "island": "Java",
      "long": "113.3463000000000",
      "lat": "-7.9754200000000"
    },
    {
      "id": 182,
      "name": "Latuk",
      "elevation": 2064,
      "col": 929,
      "prominence": 1135,
      "province": "Kalimantan Utara",
      "island": "Borneo",
      "long": "115.6833000000000",
      "lat": "2.8808000000000"
    },
    {
      "id": 183,
      "name": "Lawit",
      "elevation": 1767,
      "col": 639,
      "prominence": 1128,
      "province": "Kalimantan Barat",
      "island": "Borneo",
      "long": "112.9557952000000",
      "lat": "1.3420392300000"
    },
    {
      "id": 184,
      "name": "Lawit Terengganu",
      "elevation": 1519,
      "col": 227,
      "prominence": 1292,
      "province": "Peninsular Malaysia",
      "island": "Eurasia",
      "long": "102.5883000000000",
      "lat": "5.4250000000000"
    },
    {
      "id": 185,
      "name": "Laworkawra",
      "elevation": 781,
      "col": 0,
      "prominence": 781,
      "province": "Maluku",
      "island": "Nila",
      "long": "129.5137400000000",
      "lat": "-6.7407970000000"
    },
    {
      "id": 186,
      "name": "Lawu",
      "elevation": 3265,
      "col": 147,
      "prominence": 3118,
      "province": "Jawa Timur",
      "island": "Java",
      "long": "111.1946380000000",
      "lat": "-7.6272640000000"
    },
    {
      "id": 187,
      "name": "Legare",
      "elevation": 1332,
      "col": 322,
      "prominence": 1010,
      "province": "Papua",
      "island": "New Guinea",
      "long": "135.7841820000000",
      "lat": "-3.4607920270000"
    },
    {
      "id": 188,
      "name": "Leohito",
      "elevation": 1942,
      "col": 747,
      "prominence": 1195,
      "province": "Timor Leste",
      "island": "Timor",
      "long": "125.2308000000000",
      "lat": "-9.0858000000000"
    },
    {
      "id": 189,
      "name": "Leolaco",
      "elevation": 1929,
      "col": 816,
      "prominence": 1113,
      "province": "Timor Leste",
      "island": "Timor",
      "long": "125.2750000000000",
      "lat": "-8.9583000000000"
    },
    {
      "id": 190,
      "name": "Leuser",
      "elevation": 3466,
      "col": 526,
      "prominence": 2940,
      "province": "Nanggroe Aceh Darussalam",
      "island": "Sumatera",
      "long": "97.2192760600000",
      "lat": "3.7975840710000"
    },
    {
      "id": 191,
      "name": "Lewotobi",
      "elevation": 1703,
      "col": 305,
      "prominence": 1398,
      "province": "Nusa Tenggara Timur",
      "island": "Flores",
      "long": "122.7818528000000",
      "lat": "-8.5545228790000"
    },
    {
      "id": 192,
      "name": "Lewotolo",
      "elevation": 1455,
      "col": 34,
      "prominence": 1421,
      "province": "Nusa Tenggara Timur",
      "island": "Lembata",
      "long": "123.5078122000000",
      "lat": "-8.2740553900000"
    },
    {
      "id": 193,
      "name": "Liang",
      "elevation": 1933,
      "col": 913,
      "prominence": 1020,
      "province": "Peninsular Malaysia",
      "island": "Eurasia",
      "long": "101.5919500000000",
      "lat": "3.8025000000000"
    },
    {
      "id": 194,
      "name": "Liangpran",
      "elevation": 2240,
      "col": 874,
      "prominence": 1366,
      "province": "Kalimantan Timur",
      "island": "Borneo",
      "long": "114.3670802000000",
      "lat": "1.0445748290000"
    },
    {
      "id": 195,
      "name": "Libukang",
      "elevation": 2242,
      "col": 1216,
      "prominence": 1026,
      "province": "Sulawesi Tenggara",
      "island": "Sulawesi",
      "long": "121.1950375000000",
      "lat": "-3.2233341490000"
    },
    {
      "id": 196,
      "name": "Liman",
      "elevation": 2563,
      "col": 433,
      "prominence": 2130,
      "province": "Jawa Timur",
      "island": "Java",
      "long": "111.7568500000000",
      "lat": "-7.8204000000000"
    },
    {
      "id": 197,
      "name": "Liyang",
      "elevation": 1720,
      "col": 738,
      "prominence": 982,
      "province": "Kalimantan Tengah",
      "island": "Borneo",
      "long": "113.7002410000000",
      "lat": "0.3666350000000"
    },
    {
      "id": 198,
      "name": "Lokon",
      "elevation": 1580,
      "col": 738,
      "prominence": 842,
      "province": "Sulawesi Utara",
      "island": "Sulawesi",
      "long": "124.7971450000000",
      "lat": "1.3562700000000"
    },
    {
      "id": 199,
      "name": "Loku",
      "elevation": 1135,
      "col": 0,
      "prominence": 1135,
      "province": "Maluku Utara",
      "island": "Mangoli",
      "long": "126.0524670000000",
      "lat": "-1.8318071620000"
    },
    {
      "id": 200,
      "name": "Lotung",
      "elevation": 1805,
      "col": 492,
      "prominence": 1313,
      "province": "Sabah",
      "island": "Borneo",
      "long": "116.9825000000000",
      "lat": "4.8700000000000"
    },
    {
      "id": 201,
      "name": "Lubuk Raya",
      "elevation": 1880,
      "col": 1006,
      "prominence": 874,
      "province": "Sumatera Utara",
      "island": "Sumatra",
      "long": "99.2106610000000",
      "lat": "1.4776550000000"
    },
    {
      "id": 202,
      "name": "Lumut",
      "elevation": 1236,
      "col": 177,
      "prominence": 1059,
      "province": "Kalimantan Timur",
      "island": "Borneo",
      "long": "115.9902928000000",
      "lat": "-1.3962092410000"
    },
    {
      "id": 203,
      "name": "Magdalena",
      "elevation": 1312,
      "col": 247,
      "prominence": 1065,
      "province": "Sabah",
      "island": "Borneo",
      "long": "117.9275000000000",
      "lat": "4.4975000000000"
    },
    {
      "id": 204,
      "name": "Malabar (Puncak Besar)",
      "elevation": 2343,
      "col": 1629,
      "prominence": 714,
      "province": "Jawa Barat",
      "island": "Java",
      "long": "107.6251322200000",
      "lat": "-7.1514397000000"
    },
    {
      "id": 205,
      "name": "Malea",
      "elevation": 2199,
      "col": 777,
      "prominence": 1422,
      "province": "Sumatera Utara",
      "island": "Sumatera",
      "long": "99.7683968500000",
      "lat": "0.8599793820000"
    },
    {
      "id": 206,
      "name": "Malino",
      "elevation": 2410,
      "col": 934,
      "prominence": 1476,
      "province": "Sulawesi Tengah",
      "island": "Sulawesi",
      "long": "120.8876320000000",
      "lat": "0.7058220000000"
    },
    {
      "id": 207,
      "name": "Malintang",
      "elevation": 1983,
      "col": 1426,
      "prominence": 557,
      "province": "Sumatera Barat",
      "island": "Sumatra",
      "long": "99.6514750000000",
      "lat": "0.4774220000000"
    },
    {
      "id": 208,
      "name": "Mamaipiri",
      "elevation": 3047,
      "col": 1866,
      "prominence": 1181,
      "province": "Papua",
      "island": "New Guinea",
      "long": "135.9592720000000",
      "lat": "-4.0557806310000"
    },
    {
      "id": 209,
      "name": "Manado Tua",
      "elevation": 800,
      "col": 0,
      "prominence": 800,
      "province": "Sulawesi Utara",
      "island": "Manadotua",
      "long": "124.6953220000000",
      "lat": "1.6312180000000"
    },
    {
      "id": 210,
      "name": "Manglayang",
      "elevation": 1835,
      "col": 1497,
      "prominence": 338,
      "province": "Jawa Barat",
      "island": "Java",
      "long": "107.7439300000000",
      "lat": "-6.8779300000000"
    },
    {
      "id": 211,
      "name": "Manuk",
      "elevation": 282,
      "col": 0,
      "prominence": 282,
      "province": "Maluku",
      "island": "Manuk",
      "long": "130.3062740000000",
      "lat": "-5.5434430000000"
    },
    {
      "id": 212,
      "name": "Manukoko",
      "elevation": 995,
      "col": 0,
      "prominence": 995,
      "province": "Timor Leste",
      "island": "Atauro",
      "long": "125.5758000000000",
      "lat": "-8.2700000000000"
    },
    {
      "id": 213,
      "name": "Marapi",
      "elevation": 2891,
      "col": 775,
      "prominence": 2116,
      "province": "Sumatera Barat",
      "island": "Sumatera",
      "long": "100.4735700000000",
      "lat": "-0.3803900000000"
    },
    {
      "id": 214,
      "name": "Maras (Bui)",
      "elevation": 705,
      "col": 0,
      "prominence": 705,
      "province": "Bangka Belitung",
      "island": "Bangka",
      "long": "105.8491780000000",
      "lat": "-1.8642280000000"
    },
    {
      "id": 215,
      "name": "Masamba",
      "elevation": 1808,
      "col": 628,
      "prominence": 1180,
      "province": "Sulawesi Tengah",
      "island": "Sulawesi",
      "long": "121.2525170000000",
      "lat": "-1.7544870000000"
    },
    {
      "id": 216,
      "name": "Masurai",
      "elevation": 2933,
      "col": 1144,
      "prominence": 1789,
      "province": "Jambi",
      "island": "Sumatera",
      "long": "101.8577800000000",
      "lat": "-2.5025000000000"
    },
    {
      "id": 217,
      "name": "Matabulawa",
      "elevation": 1964,
      "col": 208,
      "prominence": 1756,
      "province": "Sulawesi Utara",
      "island": "Sulawesi",
      "long": "123.6735214000000",
      "lat": "0.4902170450000"
    },
    {
      "id": 218,
      "name": "Matebean Mane",
      "elevation": 2372,
      "col": 327,
      "prominence": 2045,
      "province": "Timor Leste (East Timor)",
      "island": "Timor",
      "long": "126.5958057000000",
      "lat": "-8.6416759100000"
    },
    {
      "id": 219,
      "name": "Mbeliling",
      "elevation": 1275,
      "col": 532,
      "prominence": 743,
      "province": "Nusa Tenggara Timur",
      "island": "Flores",
      "long": "119.9762500000000",
      "lat": "-8.6152000000000"
    },
    {
      "id": 220,
      "name": "Mekongga",
      "elevation": 2650,
      "col": 429,
      "prominence": 2221,
      "province": "Sulawesi Tenggara",
      "island": "Sulawesi",
      "long": "121.2367300000000",
      "lat": "-3.6644000000000"
    },
    {
      "id": 221,
      "name": "Melatai",
      "elevation": 1923,
      "col": 819,
      "prominence": 1104,
      "province": "Kalimantan Barat",
      "island": "Borneo",
      "long": "113.5679745000000",
      "lat": "1.3104693070000"
    },
    {
      "id": 222,
      "name": "Merapi",
      "elevation": 2930,
      "col": 1574,
      "prominence": 1356,
      "province": "Jawa Tengah",
      "island": "Java",
      "long": "110.4469370000000",
      "lat": "-7.5397280000000"
    },
    {
      "id": 223,
      "name": "Merbabu",
      "elevation": 3145,
      "col": 713,
      "prominence": 2432,
      "province": "Jawa Tengah",
      "island": "Java",
      "long": "110.4396800000000",
      "lat": "-7.4542200000000"
    },
    {
      "id": 224,
      "name": "Merdai",
      "elevation": 1421,
      "col": 158,
      "prominence": 1263,
      "province": "Kalimantan Barat",
      "island": "Borneo",
      "long": "110.2505540000000",
      "lat": "0.8775560000000"
    },
    {
      "id": 225,
      "name": "Moncong Lompobatang",
      "elevation": 2886,
      "col": 18,
      "prominence": 2868,
      "province": "Sulawesi Selatan",
      "island": "Sulawesi",
      "long": "119.9346700000000",
      "lat": "-5.3536100000000"
    },
    {
      "id": 226,
      "name": "Monkobo",
      "elevation": 1830,
      "col": 527,
      "prominence": 1303,
      "province": "Sabah",
      "island": "Borneo",
      "long": "116.9550000000000",
      "lat": "5.8200000000000"
    },
    {
      "id": 227,
      "name": "Mules (Poco Kepi)",
      "elevation": 549,
      "col": 0,
      "prominence": 549,
      "province": "Nusa Tenggara Timur",
      "island": "Mules",
      "long": "120.2702070000000",
      "lat": "-8.8974290000000"
    },
    {
      "id": 228,
      "name": "Mulu",
      "elevation": 2376,
      "col": 351,
      "prominence": 2025,
      "province": "Sarawak (Malaysia)",
      "island": "Borneo",
      "long": "114.9304014000000",
      "lat": "4.0462642460000"
    },
    {
      "id": 229,
      "name": "Mundo Perdido",
      "elevation": 1763,
      "col": 540,
      "prominence": 1223,
      "province": "Timor Leste",
      "island": "Timor",
      "long": "126.3225000000000",
      "lat": "-8.7233000000000"
    },
    {
      "id": 230,
      "name": "Muria",
      "elevation": 1610,
      "col": 8,
      "prominence": 1602,
      "province": "Jawa Tengah",
      "island": "Java",
      "long": "110.8902890000000",
      "lat": "-6.6162410000000"
    },
    {
      "id": 231,
      "name": "Murud",
      "elevation": 2423,
      "col": 456,
      "prominence": 1967,
      "province": "Sarawak (Malaysia)",
      "island": "Borneo",
      "long": "115.4883220000000",
      "lat": "3.9049040000000"
    },
    {
      "id": 232,
      "name": "Murud Kecil",
      "elevation": 1626,
      "col": 606,
      "prominence": 1020,
      "province": "Sarawak",
      "island": "Borneo",
      "long": "115.1367000000000",
      "lat": "3.3342000000000"
    },
    {
      "id": 233,
      "name": "Mutis",
      "elevation": 2417,
      "col": 447,
      "prominence": 1970,
      "province": "Nusa Tenggara Timur",
      "island": "Timor",
      "long": "124.2275500000000",
      "lat": "-9.5604700000000"
    },
    {
      "id": 234,
      "name": "Niefeb",
      "elevation": 2726,
      "col": 1620,
      "prominence": 1106,
      "province": "Papua Barat",
      "island": "New Guinea",
      "long": "133.5433407000000",
      "lat": "-1.1258854310000"
    },
    {
      "id": 235,
      "name": "Niut",
      "elevation": 1660,
      "col": 43,
      "prominence": 1617,
      "province": "Kalimantan Barat",
      "island": "Borneo",
      "long": "109.9333160000000",
      "lat": "1.0025380000000"
    },
    {
      "id": 236,
      "name": "Nokilalaki",
      "elevation": 2370,
      "col": 1599,
      "prominence": 771,
      "province": "Sulawesi Tengah",
      "island": "Sulawesi",
      "long": "120.1666300000000",
      "lat": "-1.2553500000000"
    },
    {
      "id": 237,
      "name": "North Kalimantan Peak 1964",
      "elevation": 1964,
      "col": 860,
      "prominence": 1104,
      "province": "Kalimantan Utara",
      "island": "Borneo",
      "long": "115.2995616000000",
      "lat": "2.1754085970000"
    },
    {
      "id": 238,
      "name": "North Kalimantan Peak 2219",
      "elevation": 2219,
      "col": 851,
      "prominence": 1368,
      "province": "Kalimantan Utara",
      "island": "Borneo",
      "long": "115.9607430000000",
      "lat": "2.2741050000000"
    },
    {
      "id": 239,
      "name": "Nuang",
      "elevation": 1493,
      "col": 637,
      "prominence": 856,
      "province": "Peninsular Malaysia",
      "island": "Eurasia",
      "long": "101.9000000000000",
      "lat": "3.2667000000000"
    },
    {
      "id": 240,
      "name": "Nyaan",
      "elevation": 1660,
      "col": 607,
      "prominence": 1053,
      "province": "Kalimantan Timur",
      "island": "Borneo",
      "long": "115.0048730000000",
      "lat": "1.0079910000000"
    },
    {
      "id": 241,
      "name": "Nyapa",
      "elevation": 1290,
      "col": 209,
      "prominence": 1081,
      "province": "Kalimantan Timur",
      "island": "Borneo",
      "long": "117.4256694000000",
      "lat": "1.7713478500000"
    },
    {
      "id": 242,
      "name": "Olet Sangenges",
      "elevation": 1871,
      "col": 67,
      "prominence": 1804,
      "province": "Nusa Tenggara Barat",
      "island": "Sumbawa",
      "long": "117.1222200000000",
      "lat": "-8.5803300000000"
    },
    {
      "id": 243,
      "name": "Olet Takan",
      "elevation": 1336,
      "col": 344,
      "prominence": 992,
      "province": "Nusa Tenggara Barat",
      "island": "Sumbawa",
      "long": "117.4898993000000",
      "lat": "-8.8369249600000"
    },
    {
      "id": 244,
      "name": "Ophir",
      "elevation": 1276,
      "col": 72,
      "prominence": 1204,
      "province": "Peninsular Malaysia",
      "island": "Eurasia",
      "long": "102.6083000000000",
      "lat": "2.3733000000000"
    },
    {
      "id": 245,
      "name": "Osu Nondoto",
      "elevation": 2421,
      "col": 1186,
      "prominence": 1235,
      "province": "Sulawesi Tenggara",
      "island": "Sulawesi",
      "long": "121.5577381000000",
      "lat": "-3.3860594970000"
    },
    {
      "id": 246,
      "name": "Osua Jauer",
      "elevation": 1100,
      "col": 82,
      "prominence": 1018,
      "province": "Papua",
      "island": "New Guinea",
      "long": "134.8025000000000",
      "lat": "-2.9725000000000"
    },
    {
      "id": 247,
      "name": "Palung (Ponti)",
      "elevation": 1151,
      "col": 36,
      "prominence": 1115,
      "province": "Kalimantan Barat",
      "island": "Borneo",
      "long": "110.1447897300000",
      "lat": "-1.2334439900000"
    },
    {
      "id": 248,
      "name": "Pangrango",
      "elevation": 3020,
      "col": 593,
      "prominence": 2427,
      "province": "Jawa Barat",
      "island": "Java",
      "long": "106.9649795000000",
      "lat": "-6.7700636100000"
    },
    {
      "id": 249,
      "name": "Pangulubao",
      "elevation": 2215,
      "col": 1184,
      "prominence": 1031,
      "province": "Sumatera Utara",
      "island": "Sumatera",
      "long": "99.0792230400000",
      "lat": "2.5898738600000"
    },
    {
      "id": 250,
      "name": "Pantaicermin",
      "elevation": 2690,
      "col": 1472,
      "prominence": 1218,
      "province": "Sumatera Barat",
      "island": "Sumatera",
      "long": "100.8017321000000",
      "lat": "-1.2782882940000"
    },
    {
      "id": 251,
      "name": "Papandayan (Malang)",
      "elevation": 2675,
      "col": 1346,
      "prominence": 1329,
      "province": "Jawa Barat",
      "island": "Java",
      "long": "107.7158500000000",
      "lat": "-7.3289300000000"
    },
    {
      "id": 252,
      "name": "Papua Peak 1566",
      "elevation": 1566,
      "col": 180,
      "prominence": 1386,
      "province": "Papua",
      "island": "New Guinea",
      "long": "135.0675526000000",
      "lat": "-3.5891999950000"
    },
    {
      "id": 253,
      "name": "Papua Peak 2884",
      "elevation": 2884,
      "col": 1612,
      "prominence": 1272,
      "province": "Papua",
      "island": "New Guinea",
      "long": "136.6059114000000",
      "lat": "-3.3016824650000"
    },
    {
      "id": 254,
      "name": "Papua Peak 3856",
      "elevation": 3856,
      "col": 2691,
      "prominence": 1165,
      "province": "Papua",
      "island": "New Guinea",
      "long": "138.2595300000000",
      "lat": "-3.5863460000000"
    },
    {
      "id": 255,
      "name": "Parang",
      "elevation": 930,
      "col": 561,
      "prominence": 369,
      "province": "Jawa Barat",
      "island": "Java",
      "long": "107.3456400000000",
      "lat": "-6.5948300000000"
    },
    {
      "id": 256,
      "name": "Pasu",
      "elevation": 2078,
      "col": 1095,
      "prominence": 983,
      "province": "Sumatera Selatan",
      "island": "Sumatera",
      "long": "102.6217820000000",
      "lat": "-3.3381519240000"
    },
    {
      "id": 257,
      "name": "Patah",
      "elevation": 2850,
      "col": 1215,
      "prominence": 1635,
      "province": "Sumatera Selatan",
      "island": "Sumatera",
      "long": "103.3057421000000",
      "lat": "-4.2575797960000"
    },
    {
      "id": 258,
      "name": "Patuha",
      "elevation": 2450,
      "col": 1470,
      "prominence": 980,
      "province": "Jawa Barat",
      "island": "Java",
      "long": "107.3992000000000",
      "lat": "-7.1623800000000"
    },
    {
      "id": 259,
      "name": "Pegunungan Charles Louis",
      "elevation": 1587,
      "col": 568,
      "prominence": 1019,
      "province": "Papua Barat",
      "island": "New Guinea",
      "long": "135.2450000000000",
      "lat": "-3.7508000000000"
    },
    {
      "id": 260,
      "name": "Pegunungan Hens",
      "elevation": 4061,
      "col": 2734,
      "prominence": 1327,
      "province": "Papua",
      "island": "New Guinea",
      "long": "137.3109133000000",
      "lat": "-3.7584274820000"
    },
    {
      "id": 261,
      "name": "Pegunungan Q",
      "elevation": 1769,
      "col": 385,
      "prominence": 1384,
      "province": "Papua",
      "island": "New Guinea",
      "long": "140.6519324000000",
      "lat": "-3.8021294830000"
    },
    {
      "id": 262,
      "name": "Pemancung",
      "elevation": 1552,
      "col": 320,
      "prominence": 1232,
      "province": "Kalimantan Tengah",
      "island": "Borneo",
      "long": "112.1754521000000",
      "lat": "-0.7254045080000"
    },
    {
      "id": 263,
      "name": "Penanggungan",
      "elevation": 1653,
      "col": 633,
      "prominence": 1020,
      "province": "Jawa Timur",
      "island": "Java",
      "long": "112.6199600000000",
      "lat": "-7.6156100000000"
    },
    {
      "id": 264,
      "name": "Penrissen",
      "elevation": 1326,
      "col": 433,
      "prominence": 893,
      "province": "Kalimantan Barat",
      "island": "Borneo",
      "long": "110.2228350000000",
      "lat": "1.1144550000000"
    },
    {
      "id": 265,
      "name": "Pesagi",
      "elevation": 2230,
      "col": 857,
      "prominence": 1373,
      "province": "Lampung",
      "island": "Sumatera",
      "long": "104.1464500000000",
      "lat": "-4.9233700000000"
    },
    {
      "id": 266,
      "name": "Pesawaran (Ratai)",
      "elevation": 1682,
      "col": 417,
      "prominence": 1265,
      "province": "Lampung",
      "island": "Sumatera",
      "long": "105.0951970000000",
      "lat": "-5.5133470000000"
    },
    {
      "id": 267,
      "name": "Peuet Sagoe",
      "elevation": 2801,
      "col": 1309,
      "prominence": 1492,
      "province": "Nanggroe Aceh Darussalam",
      "island": "Sumatera",
      "long": "96.3288040000000",
      "lat": "4.9150840000000"
    },
    {
      "id": 268,
      "name": "Poco Ngandonalu",
      "elevation": 2367,
      "col": 0,
      "prominence": 2367,
      "province": "Nusa Tenggara Timur",
      "island": "Flores",
      "long": "120.4479870000000",
      "lat": "-8.6517130000000"
    },
    {
      "id": 269,
      "name": "Poco Ranakah",
      "elevation": 2282,
      "col": 1711,
      "prominence": 571,
      "province": "Nusa Tenggara Timur",
      "island": "Flores",
      "long": "120.5310340000000",
      "lat": "-8.6366240000000"
    },
    {
      "id": 270,
      "name": "Pompangeo",
      "elevation": 2590,
      "col": 707,
      "prominence": 1883,
      "province": "Sulawesi Tengah",
      "island": "Sulawesi",
      "long": "120.9986010000000",
      "lat": "-1.6835986320000"
    },
    {
      "id": 271,
      "name": "Pt.1540m, Papua Barat",
      "elevation": 1540,
      "col": 545,
      "prominence": 995,
      "province": "Papua Barat",
      "island": "New Guinea",
      "long": "134.1992000000000",
      "lat": "-3.0633000000000"
    },
    {
      "id": 272,
      "name": "Pugung",
      "elevation": 1964,
      "col": 974,
      "prominence": 990,
      "province": "Lampung",
      "island": "Sumatera",
      "long": "103.8600000000000",
      "lat": "-4.9758000000000"
    },
    {
      "id": 273,
      "name": "Pulau Bawean (Gunung Besar)",
      "elevation": 655,
      "col": 0,
      "prominence": 655,
      "province": "Jawa Timur",
      "island": "Bawean",
      "long": "112.6529050000000",
      "lat": "-5.7896700000000"
    },
    {
      "id": 274,
      "name": "Pulau Besar",
      "elevation": 913,
      "col": 0,
      "prominence": 913,
      "province": "Nusa Tenggara Timur",
      "island": "Besar",
      "long": "122.3697610000000",
      "lat": "-8.4627780000000"
    },
    {
      "id": 275,
      "name": "Pulau Obi",
      "elevation": 1611,
      "col": 0,
      "prominence": 1611,
      "province": "Maluku Utara",
      "island": "Obi",
      "long": "127.6687102000000",
      "lat": "-1.5381426790000"
    },
    {
      "id": 276,
      "name": "Pulau Taliabu (Lida Godo)",
      "elevation": 1415,
      "col": 0,
      "prominence": 1415,
      "province": "Maluku Utara",
      "island": "Taliabu",
      "long": "124.7247496000000",
      "lat": "-1.7938800000000"
    },
    {
      "id": 277,
      "name": "Pulau Waigeo",
      "elevation": 1000,
      "col": 0,
      "prominence": 1000,
      "province": "Papua Barat",
      "island": "Waigeo",
      "long": "130.8517000000000",
      "lat": "-0.0417000000000"
    },
    {
      "id": 278,
      "name": "Pulau Weh (Cot Kulam)",
      "elevation": 630,
      "col": 0,
      "prominence": 630,
      "province": "Nanggroe Aceh Darussalam",
      "island": "Weh",
      "long": "95.2816803800000",
      "lat": "5.8125885420000"
    },
    {
      "id": 279,
      "name": "Pulau Yapen",
      "elevation": 1496,
      "col": 0,
      "prominence": 1496,
      "province": "Papua",
      "island": "Yapen",
      "long": "136.4282859000000",
      "lat": "-1.7708506590000"
    },
    {
      "id": 280,
      "name": "Pulosari",
      "elevation": 1346,
      "col": 456,
      "prominence": 890,
      "province": "Banten",
      "island": "Java",
      "long": "105.9783492000000",
      "lat": "-6.3416611750000"
    },
    {
      "id": 281,
      "name": "Puncak Jaya (Carstensz Pyramid)",
      "elevation": 4884,
      "col": 0,
      "prominence": 4884,
      "province": "Papua",
      "island": "New Guinea",
      "long": "137.1595300000000",
      "lat": "-4.0788800000000"
    },
    {
      "id": 282,
      "name": "Puncak Mandala",
      "elevation": 4758,
      "col": 2002,
      "prominence": 2756,
      "province": "Papua",
      "island": "New Guinea",
      "long": "140.2894230000000",
      "lat": "-4.7087340000000"
    },
    {
      "id": 283,
      "name": "Puncak Trikora",
      "elevation": 4750,
      "col": 3482,
      "prominence": 1268,
      "province": "Papua",
      "island": "New Guinea",
      "long": "138.6816844000000",
      "lat": "-4.2617558740000"
    },
    {
      "id": 284,
      "name": "Pura (Gunung Maru)",
      "elevation": 986,
      "col": 0,
      "prominence": 986,
      "province": "Nusa Tenggara Timur",
      "island": "Pura",
      "long": "124.3500147000000",
      "lat": "-8.3000052630000"
    },
    {
      "id": 285,
      "name": "Puruk Sandukui",
      "elevation": 1023,
      "col": 251,
      "prominence": 772,
      "province": "Kalimantan Tengah",
      "island": "Borneo",
      "long": "113.6233880000000",
      "lat": "-0.4902570000000"
    },
    {
      "id": 286,
      "name": "Pusuk Buhit",
      "elevation": 1982,
      "col": 1172,
      "prominence": 810,
      "province": "Sumatera Utara",
      "island": "Sumatera",
      "long": "98.6546700000000",
      "lat": "2.6010900000000"
    },
    {
      "id": 287,
      "name": "Rajabasa",
      "elevation": 1281,
      "col": 22,
      "prominence": 1259,
      "province": "Lampung",
      "island": "Sumatera",
      "long": "105.6273860000000",
      "lat": "-5.7815640000000"
    },
    {
      "id": 288,
      "name": "Rakata",
      "elevation": 813,
      "col": 0,
      "prominence": 813,
      "province": "Lampung",
      "island": "Rakata",
      "long": "105.4399825000000",
      "lat": "-6.1458143860000"
    },
    {
      "id": 289,
      "name": "Raksa",
      "elevation": 329,
      "col": 0,
      "prominence": 329,
      "province": "Banten",
      "island": "Panaitan",
      "long": "105.2426190800000",
      "lat": "-6.6026782600000"
    },
    {
      "id": 290,
      "name": "Rakutak",
      "elevation": 1959,
      "col": 1579,
      "prominence": 380,
      "province": "Jawa Barat",
      "island": "Java",
      "long": "107.7344620000000",
      "lat": "-7.1478850000000"
    },
    {
      "id": 291,
      "name": "Ramelau",
      "elevation": 2963,
      "col": 0,
      "prominence": 2963,
      "province": "Timor Leste (East Timor)",
      "island": "Timor",
      "long": "125.4935440000000",
      "lat": "-8.9064850000000"
    },
    {
      "id": 292,
      "name": "Ranai",
      "elevation": 1035,
      "col": 0,
      "prominence": 1035,
      "province": "Kepulauan Riau",
      "island": "Natuna Besar",
      "long": "108.3361620000000",
      "lat": "3.9756220000000"
    },
    {
      "id": 293,
      "name": "Rangga",
      "elevation": 1506,
      "col": 288,
      "prominence": 1218,
      "province": "Kalimantan Barat",
      "island": "Borneo",
      "long": "111.2370833000000",
      "lat": "-0.6861791480000"
    },
    {
      "id": 294,
      "name": "Rantemario",
      "elevation": 3440,
      "col": 0,
      "prominence": 3440,
      "province": "Sulawesi Selatan",
      "island": "Sulawesi",
      "long": "120.0242990000000",
      "lat": "-3.3851340000000"
    },
    {
      "id": 295,
      "name": "Raung",
      "elevation": 3332,
      "col": 263,
      "prominence": 3069,
      "province": "Jawa Timur",
      "island": "Java",
      "long": "114.0466600000000",
      "lat": "-8.1255800000000"
    },
    {
      "id": 296,
      "name": "Raya",
      "elevation": 2543,
      "col": 1270,
      "prominence": 1273,
      "province": "Jambi",
      "island": "Sumatera",
      "long": "101.4299740000000",
      "lat": "-2.2282600000000"
    },
    {
      "id": 297,
      "name": "Raya (Langkawi)",
      "elevation": 881,
      "col": 0,
      "prominence": 881,
      "province": "Peninsular Malaysia",
      "island": "Langkawi",
      "long": "99.8183000000000",
      "lat": "6.3692000000000"
    },
    {
      "id": 298,
      "name": "Rembau",
      "elevation": 884,
      "col": 246,
      "prominence": 638,
      "province": "Peninsular Malaysia",
      "island": "Eurasia",
      "long": "102.1917000000000",
      "lat": "2.5617000000000"
    },
    {
      "id": 299,
      "name": "Ringgit",
      "elevation": 1249,
      "col": 359,
      "prominence": 890,
      "province": "Jawa Timur",
      "island": "Java",
      "long": "113.8465400000000",
      "lat": "-7.7240630000000"
    },
    {
      "id": 300,
      "name": "Rinjani",
      "elevation": 3726,
      "col": 0,
      "prominence": 3726,
      "province": "Nusa Tenggara Barat",
      "island": "Lombok",
      "long": "116.4581300000000",
      "lat": "-8.4116600000000"
    },
    {
      "id": 301,
      "name": "Rogirogi",
      "elevation": 1250,
      "col": 158,
      "prominence": 1092,
      "province": "Maluku Utara",
      "island": "Halmahera",
      "long": "127.7569442000000",
      "lat": "-0.2659751890000"
    },
    {
      "id": 302,
      "name": "Rokatenda",
      "elevation": 875,
      "col": 0,
      "prominence": 875,
      "province": "Nusa Tenggara Timur",
      "island": "Paluwe",
      "long": "121.7100960000000",
      "lat": "-8.3289980000000"
    },
    {
      "id": 303,
      "name": "Ruang",
      "elevation": 725,
      "col": 0,
      "prominence": 725,
      "province": "Sulawesi Utara",
      "island": "Ruang",
      "long": "125.3685930000000",
      "lat": "2.3064420000000"
    },
    {
      "id": 304,
      "name": "Sabampolulu",
      "elevation": 1570,
      "col": 0,
      "prominence": 1570,
      "province": "Sulawesi Tenggara",
      "island": "Kabaena",
      "long": "121.9558478000000",
      "lat": "-5.3086345880000"
    },
    {
      "id": 305,
      "name": "Sabatai",
      "elevation": 1220,
      "col": 0,
      "prominence": 1220,
      "province": "Maluku Utara",
      "island": "Morotai",
      "long": "128.4336655000000",
      "lat": "2.2291426060000"
    },
    {
      "id": 306,
      "name": "Sago",
      "elevation": 2262,
      "col": 883,
      "prominence": 1379,
      "province": "Sumatera Barat",
      "island": "Sumatera",
      "long": "100.6731900000000",
      "lat": "-0.3241290000000"
    },
    {
      "id": 307,
      "name": "Sahuai",
      "elevation": 1050,
      "col": 91,
      "prominence": 959,
      "province": "Maluku",
      "island": "Seram",
      "long": "128.0150158000000",
      "lat": "-3.2202634810000"
    },
    {
      "id": 308,
      "name": "Salahutu",
      "elevation": 1038,
      "col": 0,
      "prominence": 1038,
      "province": "Maluku",
      "island": "Ambon",
      "long": "128.2557990000000",
      "lat": "-3.5456840000000"
    },
    {
      "id": 309,
      "name": "Salak",
      "elevation": 2211,
      "col": 532,
      "prominence": 1679,
      "province": "Jawa Barat",
      "island": "Java",
      "long": "106.7335670000000",
      "lat": "-6.7160620000000"
    },
    {
      "id": 310,
      "name": "Samosir",
      "elevation": 1698,
      "col": 907,
      "prominence": 791,
      "province": "Sumatera Utara",
      "island": "Samosir",
      "long": "98.8319130000000",
      "lat": "2.6406180000000"
    },
    {
      "id": 311,
      "name": "Sangeang",
      "elevation": 1949,
      "col": 0,
      "prominence": 1949,
      "province": "Nusa Tenggara Barat",
      "island": "Sangeang",
      "long": "119.0697960000000",
      "lat": "-8.1958900000000"
    },
    {
      "id": 312,
      "name": "Sangga Buana",
      "elevation": 1300,
      "col": 471,
      "prominence": 829,
      "province": "Jawa Barat",
      "island": "Java",
      "long": "107.2206000000000",
      "lat": "-6.5907700000000"
    },
    {
      "id": 313,
      "name": "Santubong",
      "elevation": 850,
      "col": 0,
      "prominence": 850,
      "province": "Sarawak",
      "island": "Borneo",
      "long": "110.3333000000000",
      "lat": "1.7367000000000"
    },
    {
      "id": 314,
      "name": "Sapathawung West",
      "elevation": 1906,
      "col": 478,
      "prominence": 1428,
      "province": "Kalimantan Tengah",
      "island": "Borneo",
      "long": "114.1304252000000",
      "lat": "0.4453881640000"
    },
    {
      "id": 315,
      "name": "Saran",
      "elevation": 1741,
      "col": 183,
      "prominence": 1558,
      "province": "Kalimantan Barat",
      "island": "Borneo",
      "long": "111.2958400000000",
      "lat": "-0.4241500000000"
    },
    {
      "id": 316,
      "name": "Sawal",
      "elevation": 1764,
      "col": 723,
      "prominence": 1041,
      "province": "Jawa Barat",
      "island": "Java",
      "long": "108.2716727000000",
      "lat": "-7.1892021790000"
    },
    {
      "id": 317,
      "name": "Sebatung",
      "elevation": 725,
      "col": 0,
      "prominence": 725,
      "province": "Kalimantan Selatan",
      "island": "Laut",
      "long": "116.2113410000000",
      "lat": "-3.3508270000000"
    },
    {
      "id": 318,
      "name": "Sebayan",
      "elevation": 1377,
      "col": 202,
      "prominence": 1175,
      "province": "Kalimantan Barat",
      "island": "Borneo",
      "long": "110.9887567000000",
      "lat": "-1.1062584230000"
    },
    {
      "id": 319,
      "name": "Sebesi",
      "elevation": 844,
      "col": 0,
      "prominence": 844,
      "province": "Lampung",
      "island": "Sebesi",
      "long": "105.4828285800000",
      "lat": "-5.9543356200000"
    },
    {
      "id": 320,
      "name": "Semangkok",
      "elevation": 1825,
      "col": 1202,
      "prominence": 623,
      "province": "Peninsular Malaysia",
      "island": "Eurasia",
      "long": "101.6517000000000",
      "lat": "3.7375000000000"
    },
    {
      "id": 321,
      "name": "Sembuang",
      "elevation": 2028,
      "col": 1074,
      "prominence": 954,
      "province": "Nanggroe Aceh Darussalam",
      "island": "Sumatera",
      "long": "97.4084274100000",
      "lat": "4.6358393660000"
    },
    {
      "id": 322,
      "name": "Semeru",
      "elevation": 3676,
      "col": 0,
      "prominence": 3676,
      "province": "Jawa Timur",
      "island": "Java",
      "long": "112.9226800000000",
      "lat": "-8.1078890000000"
    },
    {
      "id": 323,
      "name": "Seminung",
      "elevation": 1881,
      "col": 923,
      "prominence": 958,
      "province": "Lampung",
      "island": "Sumatera",
      "long": "103.9630400000000",
      "lat": "-4.9108100000000"
    },
    {
      "id": 324,
      "name": "Sempana",
      "elevation": 2329,
      "col": 1635,
      "prominence": 694,
      "province": "Nusa Tenggara Barat",
      "island": "Lombok",
      "long": "116.5714000000000",
      "lat": "-8.4191100000000"
    },
    {
      "id": 325,
      "name": "Serapi",
      "elevation": 911,
      "col": 43,
      "prominence": 868,
      "province": "Sarawak",
      "island": "Borneo",
      "long": "110.1933000000000",
      "lat": "1.5850000000000"
    },
    {
      "id": 326,
      "name": "Serawerna",
      "elevation": 655,
      "col": 0,
      "prominence": 655,
      "province": "Maluku",
      "island": "Teun",
      "long": "129.1440770000000",
      "lat": "-6.9763050000000"
    },
    {
      "id": 327,
      "name": "Seulawah Agam",
      "elevation": 1810,
      "col": 200,
      "prominence": 1610,
      "province": "Nanggroe Aceh Darussalam",
      "island": "Sumatera",
      "long": "95.6558880000000",
      "lat": "5.4471420000000"
    },
    {
      "id": 328,
      "name": "Sibayak (Pintau)",
      "elevation": 2212,
      "col": 1450,
      "prominence": 762,
      "province": "Sumatera Utara",
      "island": "Sumatera",
      "long": "98.5006100000000",
      "lat": "3.2473600000000"
    },
    {
      "id": 329,
      "name": "Sibuatan",
      "elevation": 2457,
      "col": 657,
      "prominence": 1800,
      "province": "Sumatera Utara",
      "island": "Sumatera",
      "long": "98.4234600000000",
      "lat": "2.9183100000000"
    },
    {
      "id": 330,
      "name": "Sidole",
      "elevation": 1785,
      "col": 790,
      "prominence": 995,
      "province": "Sulawesi Tengah",
      "island": "Sulawesi",
      "long": "119.9591900000000",
      "lat": "-0.5433500000000"
    },
    {
      "id": 331,
      "name": "Siel",
      "elevation": 2070,
      "col": 1073,
      "prominence": 997,
      "province": "Maluku",
      "island": "Buru",
      "long": "126.4783000000000",
      "lat": "-3.3317000000000"
    },
    {
      "id": 332,
      "name": "Sinabung",
      "elevation": 2450,
      "col": 1317,
      "prominence": 1133,
      "province": "Sumatera Utara",
      "island": "Sumatera",
      "long": "98.3906300000000",
      "lat": "3.1714200000000"
    },
    {
      "id": 333,
      "name": "Sindoro",
      "elevation": 3150,
      "col": 1389,
      "prominence": 1761,
      "province": "Jawa Tengah",
      "island": "Java",
      "long": "109.9972400000000",
      "lat": "-7.3005200000000"
    },
    {
      "id": 334,
      "name": "Singgalang",
      "elevation": 2877,
      "col": 1154,
      "prominence": 1723,
      "province": "Sumatera Barat",
      "island": "Sumatera",
      "long": "100.3308135000000",
      "lat": "-0.3899894510000"
    },
    {
      "id": 335,
      "name": "Sirung (Kukka Taupekki)",
      "elevation": 1344,
      "col": 0,
      "prominence": 1344,
      "province": "Nusa Tenggara Timur",
      "island": "Pantar",
      "long": "124.1053909000000",
      "lat": "-8.5191670250000"
    },
    {
      "id": 336,
      "name": "Slamet",
      "elevation": 3436,
      "col": 144,
      "prominence": 3292,
      "province": "Jawa Tengah",
      "island": "Java",
      "long": "109.2199358000000",
      "lat": "-7.2390691880000"
    },
    {
      "id": 337,
      "name": "Sojol",
      "elevation": 2890,
      "col": 317,
      "prominence": 2573,
      "province": "Sulawesi Tengah",
      "island": "Sulawesi",
      "long": "120.2048000000000",
      "lat": "0.5774220000000"
    },
    {
      "id": 338,
      "name": "Soputan",
      "elevation": 1809,
      "col": 384,
      "prominence": 1425,
      "province": "Sulawesi Utara",
      "island": "Sulawesi",
      "long": "124.7349928000000",
      "lat": "1.1125180880000"
    },
    {
      "id": 339,
      "name": "Sorikmarapi",
      "elevation": 2145,
      "col": 1401,
      "prominence": 744,
      "province": "Sumatera Utara",
      "island": "Sumatera",
      "long": "99.5392899999999",
      "lat": "0.6860300000000"
    },
    {
      "id": 340,
      "name": "Sumbing",
      "elevation": 3371,
      "col": 743,
      "prominence": 2628,
      "province": "Jawa Tengah",
      "island": "Java",
      "long": "110.0712100000000",
      "lat": "-7.3834300000000"
    },
    {
      "id": 341,
      "name": "Sumbing Sumatera",
      "elevation": 2507,
      "col": 1444,
      "prominence": 1063,
      "province": "Jambi",
      "island": "Sumatera",
      "long": "101.7291962000000",
      "lat": "-2.4149336890000"
    },
    {
      "id": 342,
      "name": "Tahan",
      "elevation": 2187,
      "col": 54,
      "prominence": 2140,
      "province": "Peninsular Malaysia",
      "island": "Eurasia",
      "long": "102.2342000000000",
      "lat": "4.6325000000000"
    },
    {
      "id": 343,
      "name": "Tajam",
      "elevation": 510,
      "col": 0,
      "prominence": 510,
      "province": "Bangka Belitung",
      "island": "Belitung",
      "long": "107.8732510000000",
      "lat": "-2.7859430000000"
    },
    {
      "id": 344,
      "name": "Talakmau",
      "elevation": 2919,
      "col": 590,
      "prominence": 2329,
      "province": "Sumatera Barat",
      "island": "Sumatera",
      "long": "99.9839120000000",
      "lat": "0.0788640000000"
    },
    {
      "id": 345,
      "name": "Talang",
      "elevation": 2597,
      "col": 1550,
      "prominence": 1047,
      "province": "Sumatera Barat",
      "island": "Sumatera",
      "long": "100.6816300000000",
      "lat": "-0.9788740000000"
    },
    {
      "id": 346,
      "name": "Tambora",
      "elevation": 2722,
      "col": 0,
      "prominence": 2722,
      "province": "Nusa Tenggara Barat",
      "island": "Sumbawa",
      "long": "117.9588040000000",
      "lat": "-8.2466120000000"
    },
    {
      "id": 347,
      "name": "Tambusisi",
      "elevation": 2422,
      "col": 1458,
      "prominence": 964,
      "province": "Sulawesi Tengah",
      "island": "Sulawesi",
      "long": "121.3905800000000",
      "lat": "-1.6371610000000"
    },
    {
      "id": 348,
      "name": "Tambuyukon",
      "elevation": 2579,
      "col": 1735,
      "prominence": 844,
      "province": "Sabah",
      "island": "Borneo",
      "long": "116.6600000000000",
      "lat": "6.2042000000000"
    },
    {
      "id": 349,
      "name": "Tampomas",
      "elevation": 1684,
      "col": 578,
      "prominence": 1106,
      "province": "Jawa Barat",
      "island": "Java",
      "long": "107.9605840000000",
      "lat": "-6.7637270000000"
    },
    {
      "id": 350,
      "name": "Tanggamus",
      "elevation": 2102,
      "col": 720,
      "prominence": 1382,
      "province": "Lampung",
      "island": "Sumatera",
      "long": "104.6748039800000",
      "lat": "-5.4270976500000"
    },
    {
      "id": 351,
      "name": "Tangkuban Parahu",
      "elevation": 2086,
      "col": 1377,
      "prominence": 709,
      "province": "Jawa Barat",
      "island": "Java",
      "long": "107.6059011000000",
      "lat": "-6.7532122720000"
    },
    {
      "id": 352,
      "name": "Tangkulap",
      "elevation": 1311,
      "col": 143,
      "prominence": 1168,
      "province": "Sabah",
      "island": "Borneo",
      "long": "117.1242000000000",
      "lat": "5.5183000000000"
    },
    {
      "id": 353,
      "name": "Tapis",
      "elevation": 1512,
      "col": 285,
      "prominence": 1227,
      "province": "Peninsular Malaysia",
      "island": "Eurasia",
      "long": "102.9100000000000",
      "lat": "4.0125000000000"
    },
    {
      "id": 354,
      "name": "Tebak",
      "elevation": 2115,
      "col": 965,
      "prominence": 1150,
      "province": "Lampung",
      "island": "Sumatera",
      "long": "104.5754300000000",
      "lat": "-5.0084000000000"
    },
    {
      "id": 355,
      "name": "Telomoyo",
      "elevation": 1894,
      "col": 1277,
      "prominence": 617,
      "province": "Jawa Tengah",
      "island": "Java",
      "long": "110.3998900000000",
      "lat": "-7.3610000000000"
    },
    {
      "id": 356,
      "name": "Tentolomatinan",
      "elevation": 2227,
      "col": 666,
      "prominence": 1561,
      "province": "Gorontalo",
      "island": "Sulawesi",
      "long": "121.7765100000000",
      "lat": "0.9387972860000"
    },
    {
      "id": 357,
      "name": "Tinangko",
      "elevation": 2730,
      "col": 1520,
      "prominence": 1210,
      "province": "Sulawesi Barat",
      "island": "Sulawesi",
      "long": "119.8111520000000",
      "lat": "-2.1025280000000"
    },
    {
      "id": 358,
      "name": "Tohkier",
      "elevation": 2461,
      "col": 1244,
      "prominence": 1217,
      "province": "Papua Barat",
      "island": "New Guinea",
      "long": "132.3133977000000",
      "lat": "-0.6541602230000"
    },
    {
      "id": 359,
      "name": "Tokala",
      "elevation": 2593,
      "col": 1201,
      "prominence": 1392,
      "province": "Sulawesi Tengah",
      "island": "Sulawesi",
      "long": "121.6708160000000",
      "lat": "-1.6123620000000"
    },
    {
      "id": 360,
      "name": "Tombia",
      "elevation": 1031,
      "col": 0,
      "prominence": 1031,
      "province": "Sulawesi Tengah",
      "island": "Peleng",
      "long": "122.9600000000000",
      "lat": "-1.3650000000000"
    },
    {
      "id": 361,
      "name": "Tompotika",
      "elevation": 1540,
      "col": 221,
      "prominence": 1319,
      "province": "Sulawesi Tengah",
      "island": "Sulawesi",
      "long": "123.1111500000000",
      "lat": "-0.6808900000000"
    },
    {
      "id": 362,
      "name": "Tondongkarambu",
      "elevation": 1694,
      "col": 451,
      "prominence": 1243,
      "province": "Sulawesi Selatan",
      "island": "Sulawesi",
      "long": "119.8080020000000",
      "lat": "-4.7585590000000"
    },
    {
      "id": 363,
      "name": "Toplana (Totaniwel)",
      "elevation": 1334,
      "col": 300,
      "prominence": 1034,
      "province": "Maluku",
      "island": "Seram",
      "long": "128.5000000000000",
      "lat": "-3.3835432170000"
    },
    {
      "id": 364,
      "name": "Torenali",
      "elevation": 2526,
      "col": 1599,
      "prominence": 927,
      "province": "Sulawesi Tengah",
      "island": "Sulawesi",
      "long": "120.3092850000000",
      "lat": "-1.2758240000000"
    },
    {
      "id": 365,
      "name": "Torompupu",
      "elevation": 2495,
      "col": 814,
      "prominence": 1681,
      "province": "Sulawesi Tengah",
      "island": "Sulawesi",
      "long": "119.8563374000000",
      "lat": "-1.4248198630000"
    },
    {
      "id": 366,
      "name": "Trusmadi",
      "elevation": 2643,
      "col": 941,
      "prominence": 1702,
      "province": "Sabah (Malaysia)",
      "island": "Borneo",
      "long": "116.5165510000000",
      "lat": "5.5530200000000"
    },
    {
      "id": 367,
      "name": "Tujuh",
      "elevation": 2732,
      "col": 1482,
      "prominence": 1250,
      "province": "Jambi",
      "island": "Sumatera",
      "long": "101.4402630000000",
      "lat": "-1.7013950000000"
    },
    {
      "id": 368,
      "name": "Tumpu",
      "elevation": 2565,
      "col": 511,
      "prominence": 2054,
      "province": "Sulawesi Tengah",
      "island": "Sulawesi",
      "long": "122.1902466000000",
      "lat": "-1.0642636520000"
    },
    {
      "id": 369,
      "name": "Tuntuli",
      "elevation": 959,
      "col": 216,
      "prominence": 743,
      "province": "Nusa Tenggara Timur",
      "island": "Pantar",
      "long": "124.2883792000000",
      "lat": "-8.3075962490000"
    },
    {
      "id": 370,
      "name": "Tutoh",
      "elevation": 1265,
      "col": 266,
      "prominence": 999,
      "province": "Sarawak",
      "island": "Borneo",
      "long": "114.8492000000000",
      "lat": "3.9392000000000"
    },
    {
      "id": 371,
      "name": "Tutoop",
      "elevation": 1220,
      "col": 64,
      "prominence": 1156,
      "province": "Kalimantan Barat",
      "island": "Borneo",
      "long": "111.6283000000000",
      "lat": "0.9133000000000"
    },
    {
      "id": 372,
      "name": "Ular",
      "elevation": 1208,
      "col": 187,
      "prominence": 1021,
      "province": "Kalimantan Tengah",
      "island": "Borneo",
      "long": "111.5908000000000",
      "lat": "-1.5833000000000"
    },
    {
      "id": 373,
      "name": "Ulu Bakar",
      "elevation": 1391,
      "col": 362,
      "prominence": 1029,
      "province": "Peninsular Malaysia",
      "island": "Eurasia",
      "long": "102.9175000000000",
      "lat": "4.3033000000000"
    },
    {
      "id": 374,
      "name": "Ulu Kali",
      "elevation": 1772,
      "col": 862,
      "prominence": 910,
      "province": "Peninsular Malaysia",
      "island": "Eurasia",
      "long": "101.7833000000000",
      "lat": "3.4383000000000"
    },
    {
      "id": 375,
      "name": "Ulu Sepat",
      "elevation": 2161,
      "col": 1386,
      "prominence": 775,
      "province": "Peninsular Malaysia",
      "island": "Eurasia",
      "long": "101.4833000000000",
      "lat": "5.1400000000000"
    },
    {
      "id": 376,
      "name": "Ulu Soh",
      "elevation": 1324,
      "col": 234,
      "prominence": 1090,
      "province": "Peninsular Malaysia",
      "island": "Eurasia",
      "long": "101.0975000000000",
      "lat": "5.0833000000000"
    },
    {
      "id": 377,
      "name": "Ulu Titi Basah",
      "elevation": 1533,
      "col": 474,
      "prominence": 1059,
      "province": "Peninsular Malaysia",
      "island": "Eurasia",
      "long": "101.3166200000000",
      "lat": "5.7997600000000"
    },
    {
      "id": 378,
      "name": "Undundi-Wandandi",
      "elevation": 3640,
      "col": 1908,
      "prominence": 1732,
      "province": "Papua",
      "island": "New Guinea",
      "long": "136.4226990000000",
      "lat": "-3.5066980000000"
    },
    {
      "id": 379,
      "name": "Ungaran",
      "elevation": 2050,
      "col": 730,
      "prominence": 1320,
      "province": "Jawa Tengah",
      "island": "Java",
      "long": "110.3445000000000",
      "lat": "-7.1872400000000"
    },
    {
      "id": 380,
      "name": "Valentiyn",
      "elevation": 4453,
      "col": 3646,
      "prominence": 807,
      "province": "Papua",
      "island": "New Guinea",
      "long": "139.7366863000000",
      "lat": "-4.4192009610000"
    },
    {
      "id": 381,
      "name": "Wagura",
      "elevation": 1180,
      "col": 181,
      "prominence": 999,
      "province": "Papua Barat",
      "island": "New Guinea",
      "long": "133.8667000000000",
      "lat": "-2.7883000000000"
    },
    {
      "id": 382,
      "name": "Wanggameti",
      "elevation": 1225,
      "col": 0,
      "prominence": 1225,
      "province": "Nusa Tenggara Timur",
      "island": "Sumba",
      "long": "120.2363730000000",
      "lat": "-10.1163480000000"
    },
    {
      "id": 383,
      "name": "Watowato",
      "elevation": 1442,
      "col": 45,
      "prominence": 1397,
      "province": "Maluku Utara",
      "island": "Halmahera",
      "long": "128.1089087000000",
      "lat": "1.0133649480000"
    },
    {
      "id": 384,
      "name": "Wawo Lantambaga",
      "elevation": 909,
      "col": 0,
      "prominence": 909,
      "province": "Sulawesi Tenggara",
      "island": "Wowoni",
      "long": "123.0955376000000",
      "lat": "-4.1613152530000"
    },
    {
      "id": 385,
      "name": "Wayang-Windu",
      "elevation": 2198,
      "col": 1809,
      "prominence": 389,
      "province": "Jawa Barat",
      "island": "Java",
      "long": "107.6400400000000",
      "lat": "-7.2108300000000"
    },
    {
      "id": 386,
      "name": "Western Hill",
      "elevation": 833,
      "col": 0,
      "prominence": 833,
      "province": "Peninsular Malaysia",
      "island": "Penang",
      "long": "100.2508000000000",
      "lat": "5.4250000000000"
    },
    {
      "id": 387,
      "name": "Wondiwoi",
      "elevation": 2187,
      "col": 193,
      "prominence": 1994,
      "province": "Papua Barat",
      "island": "New Guinea",
      "long": "134.5842137000000",
      "lat": "-2.7332485950000"
    },
    {
      "id": 388,
      "name": "Wuarlapna",
      "elevation": 641,
      "col": 0,
      "prominence": 641,
      "province": "Maluku",
      "island": "Serua",
      "long": "130.0170400000000",
      "lat": "-6.3123220000000"
    },
    {
      "id": 389,
      "name": "Wurlali",
      "elevation": 868,
      "col": 0,
      "prominence": 868,
      "province": "Maluku",
      "island": "Damar",
      "long": "128.6735380000000",
      "lat": "-7.1218870000000"
    },
    {
      "id": 390,
      "name": "X Chain",
      "elevation": 3801,
      "col": 2668,
      "prominence": 1133,
      "province": "Papua",
      "island": "New Guinea",
      "long": "137.8282950000000",
      "lat": "-3.5424150000000"
    },
    {
      "id": 391,
      "name": "Y Chain",
      "elevation": 3285,
      "col": 2058,
      "prominence": 1227,
      "province": "Papua",
      "island": "New Guinea",
      "long": "137.5600734000000",
      "lat": "-3.5584919010000"
    },
    {
      "id": 392,
      "name": "Yaramaniapuka",
      "elevation": 3251,
      "col": 2139,
      "prominence": 1112,
      "province": "Papua",
      "island": "New Guinea",
      "long": "135.7408382000000",
      "lat": "-4.0991377160000"
    },
    {
      "id": 393,
      "name": "Yong Belar",
      "elevation": 2181,
      "col": 1566,
      "prominence": 615,
      "province": "Peninsular Malaysia",
      "island": "Eurasia",
      "long": "101.3619500000000",
      "lat": "4.6506200000000"
    },
    {
      "id": 394,
      "name": "Yong Yap",
      "elevation": 2168,
      "col": 1530,
      "prominence": 638,
      "province": "Peninsular Malaysia",
      "island": "Eurasia",
      "long": "101.3733000000000",
      "lat": "4.7608000000000"
    },